active,timestamp,engine_max_rpm,engine_idle_rpm,engine_current_rpm,acceleration_x,acceleration_y,acceleration_z,velocity_x,velocity_y,velocity_z,angular_velocity_x,angular_velocity_y,angular_velocity_z,yaw,pitch,roll,suspension_travel_ratio_FL,suspension_travel_ratio_FR,suspension_travel_ratio_RL,suspension_travel_ratio_RR,wheel_slip_ratio_FL,wheel_slip_ratio_FR,wheel_slip_ratio_RL,wheel_slip_ratio_RR,wheel_rotation_speed_FL,wheel_rotation_speed_FR,wheel_rotation_speed_RL,wheel_rotation_speed_RR,wheel_on_rumble_strip_FL,wheel_on_rumble_strip_FR,wheel_on_rumble_strip_RL,wheel_on_rumble_strip_RR,wheel_puddle_depth_FL,wheel_puddle_depth_FR,wheel_puddle_depth_RL,wheel_puddle_depth_RR,surface_rumble_FL,surface_rumble_FR,surface_rumble_RL,surface_rumble_RR,wheel_slip_angle_FL,wheel_slip_angle_FR,wheel_slip_angle_RL,wheel_slip_angle_RR,wheel_combined_slip_FL,wheel_combined_slip_FR,wheel_combined_slip_RL,wheel_combined_slip_RR,suspension_travel_FL,suspension_travel_FR,suspension_travel_RL,suspension_travel_RR,car_ordinal_id,car_class_id,car_performance_index,car_drivetrain_id,car_num_cylinders,position_x,position_y,position_z,speed,power,torque,tire_temp_FL,tire_temp_FR,tire_temp_RL,tire_temp_RR,boost,fuel,dist_traveled,lap_time_best,lap_time_last,lap_time_current,race_time,lap_num,race_position,throttle,brake,clutch,handbrake,gear_num,steering_angle,driving_line,ai_brake_diff,tire_wear_FL,tire_wear_FR,tire_wear_RL,tire_wear_RR,track_id
1,1082937,8499.9951,799.9995,800.0174,0.0,-0.0,-0.0,0.0,0.0002,0.0,-0.0002,-0.0,0.0002,-0.9551,0.0155,0.0109,0.4031,0.4002,0.3982,0.3958,-0.0,0.0,0.0,-0.0,0.0002,0.0003,0.0002,0.0003,0,0,0,0,0.0,0.0,0.0,0.0,0.0,0.0,0.0,0.0,-0.0001,-0.0001,-0.0002,-0.0002,0.0001,0.0001,0.0002,0.0002,0.0012,0.001,0.0018,0.0017,3620,4,700,1,6,-337.1286,-20.6969,-190.1068,0,0,0,31.65,31.22,31.91,31.91,-11.025,0.9979,528.4749,0.0,0.0,606.4893,771.3528,0,1,0,0,0,0,1,0,19,0,0.0008,0.0008,0.0013,0.0013,113
1,1082953,8499.9951,799.9995,800.0174,0.0,-0.0,-0.0,0.0,0.0002,0.0,-0.0002,-0.0,0.0002,-0.9551,0.0155,0.0109,0.4031,0.4002,0.3982,0.3958,-0.0,0.0,0.0,-0.0,0.0002,0.0003,0.0002,0.0003,0,0,0,0,0.0,0.0,0.0,0.0,0.0,0.0,0.0,0.0,-0.0001,-0.0001,-0.0002,-0.0002,0.0001,0.0001,0.0002,0.0002,0.0012,0.001,0.0018,0.0017,3620,4,700,1,6,-337.1286,-20.6969,-190.1068,0,0,0,31.65,31.22,31.91,31.91,-11.025,0.9979,528.4749,0.0,0.0,606.506,771.3695,0,1,0,0,0,0,1,0,19,0,0.0008,0.0008,0.0013,0.0013,113
1,1082968,8499.9951,799.9995,800.0174,0.0,-0.0,-0.0,0.0,0.0002,0.0,-0.0002,-0.0,0.0002,-0.9551,0.0155,0.0109,0.4031,0.4002,0.3982,0.3958,-0.0,0.0,0.0,-0.0,0.0002,0.0003,0.0002,0.0003,0,0,0,0,0.0,0.0,0.0,0.0,0.0,0.0,0.0,0.0,-0.0001,-0.0001,-0.0002,-0.0002,0.0001,0.0001,0.0002,0.0002,0.0012,0.001,0.0018,0.0017,3620,4,700,1,6,-337.1286,-20.6969,-190.1068,0,0,0,31.65,31.22,31.91,31.91,-11.025,0.9979,528.4749,0.0,0.0,606.5226,771.3862,0,1,0,0,0,0,1,0,19,0,0.0008,0.0008,0.0013,0.0013,113
1,1082984,8499.9951,799.9995,800.0174,0.0,-0.0,-0.0,0.0,0.0002,0.0,-0.0002,-0.0,0.0002,-0.9551,0.0155,0.0109,0.4031,0.4002,0.3982,0.3958,-0.0,0.0,0.0,-0.0,0.0002,0.0003,0.0002,0.0003,0,0,0,0,0.0,0.0,0.0,0.0,0.0,0.0,0.0,0.0,-0.0001,-0.0001,-0.0002,-0.0002,0.0001,0.0001,0.0002,0.0002,0.0012,0.001,0.0018,0.0017,3620,4,700,1,6,-337.1286,-20.6969,-190.1068,0,0,0,31.65,31.21,31.91,31.91,-11.025,0.9979,528.4749,0.0,0.0,606.5393,771.4028,0,1,0,0,0,0,1,0,19,0,0.0008,0.0008,0.0013,0.0013,113
1,1083015,8499.9951,799.9995,800.0174,0.0,-0.0,-0.0,0.0,0.0002,0.0,-0.0002,-0.0,0.0002,-0.9551,0.0155,0.0109,0.4031,0.4002,0.3982,0.3958,-0.0,0.0,0.0,-0.0,0.0002,0.0003,0.0002,0.0003,0,0,0,0,0.0,0.0,0.0,0.0,0.0,0.0,0.0,0.0,-0.0001,-0.0001,-0.0002,-0.0002,0.0001,0.0001,0.0002,0.0002,0.0012,0.001,0.0018,0.0017,3620,4,700,1,6,-337.1286,-20.6969,-190.1068,0,0,0,31.65,31.21,31.91,31.91,-11.025,0.9979,528.4749,0.0,0.0,606.556,771.4195,0,1,0,0,0,0,1,0,19,0,0.0008,0.0008,0.0013,0.0013,113
1,1083031,8499.9951,799.9995,800.0174,0.0,-0.0,-0.0,0.0,0.0002,0.0,-0.0002,-0.0,0.0002,-0.9551,0.0155,0.0109,0.4031,0.4002,0.3982,0.3958,-0.0,0.0,0.0,-0.0,0.0002,0.0003,0.0002,0.0003,0,0,0,0,0.0,0.0,0.0,0.0,0.0,0.0,0.0,0.0,-0.0001,-0.0001,-0.0002,-0.0002,0.0001,0.0001,0.0002,0.0002,0.0012,0.001,0.0018,0.0017,3620,4,700,1,6,-337.1286,-20.6969,-190.1068,0,0,0,31.65,31.21,31.91,31.91,-11.025,0.9979,528.4749,0.0,0.0,606.5726,771.4362,0,1,0,0,0,0,1,0,19,0,0.0008,0.0008,0.0013,0.0013,113
1,1083046,8499.9951,799.9995,800.0174,0.0,-0.0,-0.0,0.0,0.0002,0.0,-0.0002,-0.0,0.0002,-0.9551,0.0155,0.0109,0.4031,0.4002,0.3982,0.3958,-0.0,0.0,0.0,-0.0,0.0002,0.0003,0.0002,0.0003,0,0,0,0,0.0,0.0,0.0,0.0,0.0,0.0,0.0,0.0,-0.0001,-0.0001,-0.0002,-0.0002,0.0001,0.0001,0.0002,0.0002,0.0012,0.001,0.0018,0.0017,3620,4,700,1,6,-337.1286,-20.6969,-190.1068,0,0,0,31.64,31.21,31.9,31.9,-11.025,0.9979,528.4749,0.0,0.0,606.5894,771.4528,0,1,0,0,0,0,1,0,19,0,0.0008,0.0008,0.0013,0.0013,113
1,1083062,8499.9951,799.9995,800.0174,0.0,-0.0,-0.0,0.0,0.0002,0.0,-0.0002,-0.0,0.0002,-0.9551,0.0155,0.0109,0.4031,0.4002,0.3982,0.3958,-0.0,0.0,0.0,-0.0,0.0002,0.0003,0.0002,0.0003,0,0,0,0,0.0,0.0,0.0,0.0,0.0,0.0,0.0,0.0,-0.0001,-0.0001,-0.0002,-0.0002,0.0001,0.0001,0.0002,0.0002,0.0012,0.001,0.0018,0.0017,3620,4,700,1,6,-337.1286,-20.6969,-190.1068,0,0,0,31.64,31.21,31.9,31.9,-11.025,0.9979,528.4749,0.0,0.0,606.606,771.4695,0,1,0,0,0,0,1,0,19,0,0.0008,0.0008,0.0013,0.0013,113
1,1083078,8499.9951,799.9995,800.0174,0.0,-0.0,-0.0,0.0,0.0002,0.0,-0.0002,-0.0,0.0002,-0.9551,0.0155,0.0109,0.4031,0.4002,0.3982,0.3958,-0.0,0.0,0.0,-0.0,0.0002,0.0003,0.0002,0.0003,0,0,0,0,0.0,0.0,0.0,0.0,0.0,0.0,0.0,0.0,-0.0001,-0.0001,-0.0002,-0.0002,0.0001,0.0001,0.0002,0.0002,0.0012,0.001,0.0018,0.0017,3620,4,700,1,6,-337.1286,-20.6969,-190.1068,0,0,0,31.64,31.21,31.9,31.9,-11.025,0.9979,528.4749,0.0,0.0,606.6227,771.4861,0,1,0,0,0,0,1,0,19,0,0.0008,0.0008,0.0013,0.0013,113
1,1083093,8499.9951,799.9995,800.0174,0.0,-0.0,-0.0,0.0,0.0002,0.0,-0.0002,-0.0,0.0002,-0.9551,0.0155,0.0109,0.4031,0.4002,0.3982,0.3958,-0.0,0.0,0.0,-0.0,0.0002,0.0003,0.0002,0.0003,0,0,0,0,0.0,0.0,0.0,0.0,0.0,0.0,0.0,0.0,-0.0001,-0.0001,-0.0002,-0.0002,0.0001,0.0001,0.0002,0.0002,0.0012,0.001,0.0018,0.0017,3620,4,700,1,6,-337.1286,-20.6969,-190.1068,0,0,0,31.64,31.21,31.9,31.9,-11.025,0.9979,528.4749,0.0,0.0,606.6393,771.5028,0,1,0,0,0,0,1,0,19,0,0.0008,0.0008,0.0013,0.0013,113
1,1083109,8499.9951,799.9995,800.0174,0.0,-0.0,-0.0,0.0,0.0002,0.0,-0.0002,-0.0,0.0002,-0.9551,0.0155,0.0109,0.4031,0.4002,0.3982,0.3958,-0.0,0.0,0.0,-0.0,0.0002,0.0003,0.0002,0.0003,0,0,0,0,0.0,0.0,0.0,0.0,0.0,0.0,0.0,0.0,-0.0001,-0.0001,-0.0002,-0.0002,0.0001,0.0001,0.0002,0.0002,0.0012,0.001,0.0018,0.0017,3620,4,700,1,6,-337.1286,-20.6969,-190.1068,0,0,0,31.64,31.2,31.9,31.9,-11.025,0.9979,528.4749,0.0,0.0,606.656,771.5195,0,1,0,0,0,0,1,0,19,0,0.0008,0.0008,0.0013,0.0013,113
1,1083125,8499.9951,799.9995,800.0174,0.0,-0.0,-0.0,0.0,0.0002,0.0,-0.0002,-0.0,0.0002,-0.9551,0.0155,0.0109,0.4031,0.4002,0.3982,0.3958,-0.0,0.0,0.0,-0.0,0.0002,0.0003,0.0002,0.0003,0,0,0,0,0.0,0.0,0.0,0.0,0.0,0.0,0.0,0.0,-0.0001,-0.0001,-0.0002,-0.0002,0.0001,0.0001,0.0002,0.0002,0.0012,0.001,0.0018,0.0017,3620,4,700,1,6,-337.1286,-20.6969,-190.1068,0,0,0,31.64,31.2,31.9,31.9,-11.025,0.9979,528.4749,0.0,0.0,606.6727,771.5361,0,1,0,0,0,0,1,0,19,0,0.0008,0.0008,0.0013,0.0013,113
1,1083140,8499.9951,799.9995,800.0174,0.0,-0.0,-0.0,0.0,0.0002,0.0,-0.0002,-0.0,0.0002,-0.9551,0.0155,0.0109,0.4031,0.4002,0.3982,0.3958,-0.0,0.0,0.0,-0.0,0.0002,0.0003,0.0002,0.0003,0,0,0,0,0.0,0.0,0.0,0.0,0.0,0.0,0.0,0.0,-0.0001,-0.0001,-0.0002,-0.0002,0.0001,0.0001,0.0002,0.0002,0.0012,0.001,0.0018,0.0017,3620,4,700,1,6,-337.1286,-20.6969,-190.1068,0,0,0,31.63,31.2,31.9,31.9,-11.025,0.9979,528.4749,0.0,0.0,606.6893,771.5528,0,1,0,0,0,0,1,0,19,0,0.0008,0.0008,0.0013,0.0013,113
1,1083156,8499.9951,799.9995,800.0174,0.0,-0.0,-0.0,0.0,0.0002,0.0,-0.0002,-0.0,0.0002,-0.9551,0.0155,0.0109,0.4031,0.4002,0.3982,0.3958,-0.0,0.0,0.0,-0.0,0.0002,0.0003,0.0002,0.0003,0,0,0,0,0.0,0.0,0.0,0.0,0.0,0.0,0.0,0.0,-0.0001,-0.0001,-0.0002,-0.0002,0.0001,0.0001,0.0002,0.0002,0.0012,0.001,0.0018,0.0017,3620,4,700,1,6,-337.1286,-20.6969,-190.1068,0,0,0,31.63,31.2,31.89,31.89,-11.025,0.9979,528.4749,0.0,0.0,606.706,771.5695,0,1,0,0,0,0,1,0,19,0,0.0008,0.0008,0.0013,0.0013,113
1,1083171,8499.9951,799.9995,800.0174,0.0,-0.0,-0.0,0.0,0.0002,0.0,-0.0002,-0.0,0.0002,-0.9551,0.0155,0.0109,0.4031,0.4002,0.3982,0.3958,-0.0,0.0,0.0,-0.0,0.0002,0.0003,0.0002,0.0003,0,0,0,0,0.0,0.0,0.0,0.0,0.0,0.0,0.0,0.0,-0.0001,-0.0001,-0.0002,-0.0002,0.0001,0.0001,0.0002,0.0002,0.0012,0.001,0.0018,0.0017,3620,4,700,1,6,-337.1286,-20.6969,-190.1068,0,0,0,31.63,31.2,31.89,31.89,-11.025,0.9979,528.4749,0.0,0.0,606.7227,771.5862,0,1,0,0,0,0,1,0,19,0,0.0008,0.0008,0.0013,0.0013,113
1,1083187,8499.9951,799.9995,800.0174,0.0,-0.0,-0.0,0.0,0.0002,0.0,-0.0002,-0.0,0.0002,-0.9551,0.0155,0.0109,0.4031,0.4002,0.3982,0.3958,-0.0,0.0,0.0,-0.0,0.0002,0.0003,0.0002,0.0003,0,0,0,0,0.0,0.0,0.0,0.0,0.0,0.0,0.0,0.0,-0.0001,-0.0001,-0.0002,-0.0002,0.0001,0.0001,0.0002,0.0002,0.0012,0.001,0.0018,0.0017,3620,4,700,1,6,-337.1286,-20.6969,-190.1068,0,0,0,31.63,31.2,31.89,31.89,-11.025,0.9979,528.4749,0.0,0.0,606.7393,771.6028,0,1,0,0,0,0,1,0,19,0,0.0008,0.0008,0.0013,0.0013,113
1,1083203,8499.9951,799.9995,800.0174,0.0,-0.0,-0.0,0.0,0.0002,0.0,-0.0002,-0.0,0.0002,-0.9551,0.0155,0.0109,0.4031,0.4002,0.3982,0.3958,-0.0,0.0,0.0,-0.0,0.0002,0.0003,0.0002,0.0003,0,0,0,0,0.0,0.0,0.0,0.0,0.0,0.0,0.0,0.0,-0.0001,-0.0001,-0.0002,-0.0002,0.0001,0.0001,0.0002,0.0002,0.0012,0.001,0.0018,0.0017,3620,4,700,1,6,-337.1286,-20.6969,-190.1068,0,0,0,31.63,31.19,31.89,31.89,-11.025,0.9979,528.4749,0.0,0.0,606.756,771.6195,0,1,0,0,0,0,1,0,19,0,0.0008,0.0008,0.0013,0.0013,113
1,1083218,8499.9951,799.9995,800.0174,0.0,-0.0,-0.0,0.0,0.0002,0.0,-0.0002,-0.0,0.0002,-0.9551,0.0155,0.0109,0.4031,0.4002,0.3982,0.3958,-0.0,0.0,0.0,-0.0,0.0002,0.0003,0.0002,0.0003,0,0,0,0,0.0,0.0,0.0,0.0,0.0,0.0,0.0,0.0,-0.0001,-0.0001,-0.0002,-0.0002,0.0001,0.0001,0.0002,0.0002,0.0012,0.001,0.0018,0.0017,3620,4,700,1,6,-337.1286,-20.6969,-190.1068,0,0,0,31.63,31.19,31.89,31.89,-11.025,0.9979,528.4749,0.0,0.0,606.7726,771.6362,0,1,0,0,0,0,1,0,19,0,0.0008,0.0008,0.0013,0.0013,113
1,1083250,8499.9951,799.9995,800.0174,0.0,-0.0,-0.0,0.0,0.0002,0.0,-0.0002,-0.0,0.0002,-0.9551,0.0155,0.0109,0.4031,0.4002,0.3982,0.3958,-0.0,0.0,0.0,-0.0,0.0002,0.0003,0.0002,0.0003,0,0,0,0,0.0,0.0,0.0,0.0,0.0,0.0,0.0,0.0,-0.0001,-0.0001,-0.0002,-0.0002,0.0001,0.0001,0.0002,0.0002,0.0012,0.001,0.0018,0.0017,3620,4,700,1,6,-337.1286,-20.6969,-190.1068,0,0,0,31.62,31.19,31.89,31.89,-11.025,0.9979,528.4749,0.0,0.0,606.7893,771.6528,0,1,0,0,0,0,1,0,19,0,0.0008,0.0008,0.0013,0.0013,113
1,1083265,8499.9951,799.9995,800.0174,0.0,-0.0,-0.0,0.0,0.0002,0.0,-0.0002,-0.0,0.0002,-0.9551,0.0155,0.0109,0.4031,0.4002,0.3982,0.3958,-0.0,0.0,0.0,-0.0,0.0002,0.0003,0.0002,0.0003,0,0,0,0,0.0,0.0,0.0,0.0,0.0,0.0,0.0,0.0,-0.0001,-0.0001,-0.0002,-0.0002,0.0001,0.0001,0.0002,0.0002,0.0012,0.001,0.0018,0.0017,3620,4,700,1,6,-337.1286,-20.6969,-190.1068,0,0,0,31.62,31.19,31.88,31.88,-11.025,0.9979,528.4749,0.0,0.0,606.806,771.6695,0,1,0,0,0,0,1,0,19,0,0.0008,0.0008,0.0013,0.0013,113
1,1083281,8499.9951,799.9995,800.0174,0.0,-0.0,-0.0,0.0,0.0002,0.0,-0.0002,-0.0,0.0002,-0.9551,0.0155,0.0109,0.4031,0.4002,0.3982,0.3958,-0.0,0.0,0.0,-0.0,0.0002,0.0003,0.0002,0.0003,0,0,0,0,0.0,0.0,0.0,0.0,0.0,0.0,0.0,0.0,-0.0001,-0.0001,-0.0002,-0.0002,0.0001,0.0001,0.0002,0.0002,0.0012,0.001,0.0018,0.0017,3620,4,700,1,6,-337.1286,-20.6969,-190.1068,0,0,0,31.62,31.19,31.88,31.88,-11.025,0.9979,528.4749,0.0,0.0,606.8226,771.6862,0,1,0,0,0,0,1,0,19,0,0.0008,0.0008,0.0013,0.0013,113
1,1083296,8499.9951,799.9995,800.0174,0.0,-0.0,-0.0,0.0,0.0002,0.0,-0.0002,-0.0,0.0002,-0.9551,0.0155,0.0109,0.4031,0.4002,0.3982,0.3958,-0.0,0.0,0.0,-0.0,0.0002,0.0003,0.0002,0.0003,0,0,0,0,0.0,0.0,0.0,0.0,0.0,0.0,0.0,0.0,-0.0001,-0.0001,-0.0002,-0.0002,0.0001,0.0001,0.0002,0.0002,0.0012,0.001,0.0018,0.0017,3620,4,700,1,6,-337.1286,-20.6969,-190.1068,0,0,0,31.62,31.19,31.88,31.88,-11.025,0.9979,528.4749,0.0,0.0,606.8394,771.7028,0,1,0,0,0,0,1,0,19,0,0.0008,0.0008,0.0013,0.0013,113
1,1083312,8499.9951,799.9995,800.0174,0.0,-0.0,-0.0,0.0,0.0002,0.0,-0.0002,-0.0,0.0002,-0.9551,0.0155,0.0109,0.4031,0.4002,0.3982,0.3958,-0.0,0.0,0.0,-0.0,0.0002,0.0003,0.0002,0.0003,0,0,0,0,0.0,0.0,0.0,0.0,0.0,0.0,0.0,0.0,-0.0001,-0.0001,-0.0002,-0.0002,0.0001,0.0001,0.0002,0.0002,0.0012,0.001,0.0018,0.0017,3620,4,700,1,6,-337.1286,-20.6969,-190.1068,0,0,0,31.62,31.19,31.88,31.88,-11.025,0.9979,528.4749,0.0,0.0,606.856,771.7195,0,1,0,0,0,0,1,0,19,0,0.0008,0.0008,0.0013,0.0013,113
1,1083328,8499.9951,799.9995,800.0174,0.0,-0.0,-0.0,0.0,0.0002,0.0,-0.0002,-0.0,0.0002,-0.9551,0.0155,0.0109,0.4031,0.4002,0.3982,0.3958,-0.0,0.0,0.0,-0.0,0.0002,0.0003,0.0002,0.0003,0,0,0,0,0.0,0.0,0.0,0.0,0.0,0.0,0.0,0.0,-0.0001,-0.0001,-0.0002,-0.0002,0.0001,0.0001,0.0002,0.0002,0.0012,0.001,0.0018,0.0017,3620,4,700,1,6,-337.1286,-20.6969,-190.1068,0,0,0,31.62,31.18,31.88,31.88,-11.025,0.9979,528.4749,0.0,0.0,606.8727,771.7361,0,1,0,0,0,0,1,0,19,0,0.0008,0.0008,0.0013,0.0013,113
1,1083343,8499.9951,799.9995,800.0174,0.0,-0.0,-0.0,0.0,0.0002,0.0,-0.0002,-0.0,0.0002,-0.9551,0.0155,0.0109,0.4031,0.4002,0.3982,0.3958,-0.0,0.0,0.0,-0.0,0.0002,0.0003,0.0002,0.0003,0,0,0,0,0.0,0.0,0.0,0.0,0.0,0.0,0.0,0.0,-0.0001,-0.0001,-0.0002,-0.0002,0.0001,0.0001,0.0002,0.0002,0.0012,0.001,0.0018,0.0017,3620,4,700,1,6,-337.1286,-20.6969,-190.1068,0,0,0,31.62,31.18,31.88,31.88,-11.025,0.9979,528.4749,0.0,0.0,606.8893,771.7528,0,1,0,0,0,0,1,0,19,0,0.0008,0.0008,0.0013,0.0013,113
1,1083359,8499.9951,799.9995,800.0174,0.0,-0.0,-0.0,0.0,0.0002,0.0,-0.0002,-0.0,0.0002,-0.9551,0.0155,0.0109,0.4031,0.4002,0.3982,0.3958,-0.0,0.0,0.0,-0.0,0.0002,0.0003,0.0002,0.0003,0,0,0,0,0.0,0.0,0.0,0.0,0.0,0.0,0.0,0.0,-0.0001,-0.0001,-0.0002,-0.0002,0.0001,0.0001,0.0002,0.0002,0.0012,0.001,0.0018,0.0017,3620,4,700,1,6,-337.1286,-20.6969,-190.1068,0,0,0,31.61,31.18,31.87,31.87,-11.025,0.9979,528.4749,0.0,0.0,606.906,771.7695,0,1,0,0,0,0,1,0,19,0,0.0008,0.0008,0.0013,0.0013,113
1,1083375,8499.9951,799.9995,800.0174,0.0,-0.0,-0.0,0.0,0.0002,0.0,-0.0002,-0.0,0.0002,-0.9551,0.0155,0.0109,0.4031,0.4002,0.3982,0.3958,-0.0,0.0,0.0,-0.0,0.0002,0.0003,0.0002,0.0003,0,0,0,0,0.0,0.0,0.0,0.0,0.0,0.0,0.0,0.0,-0.0001,-0.0001,-0.0002,-0.0002,0.0001,0.0001,0.0002,0.0002,0.0012,0.001,0.0018,0.0017,3620,4,700,1,6,-337.1286,-20.6969,-190.1068,0,0,0,31.61,31.18,31.87,31.87,-11.025,0.9979,528.4749,0.0,0.0,606.9227,771.7861,0,1,0,0,0,0,1,0,19,0,0.0008,0.0008,0.0013,0.0013,113
1,1083390,8499.9951,799.9995,800.0174,0.0,-0.0,-0.0,0.0,0.0002,0.0,-0.0002,-0.0,0.0002,-0.9551,0.0155,0.0109,0.4031,0.4002,0.3982,0.3958,-0.0,0.0,0.0,-0.0,0.0002,0.0003,0.0002,0.0003,0,0,0,0,0.0,0.0,0.0,0.0,0.0,0.0,0.0,0.0,-0.0001,-0.0001,-0.0002,-0.0002,0.0001,0.0001,0.0002,0.0002,0.0012,0.001,0.0018,0.0017,3620,4,700,1,6,-337.1286,-20.6969,-190.1068,0,0,0,31.61,31.18,31.87,31.87,-11.025,0.9979,528.4749,0.0,0.0,606.9393,771.8028,0,1,0,0,0,0,1,0,19,0,0.0008,0.0008,0.0013,0.0013,113
1,1083406,8499.9951,799.9995,800.0174,0.0,-0.0,-0.0,0.0,0.0002,0.0,-0.0002,-0.0,0.0002,-0.9551,0.0155,0.0109,0.4031,0.4002,0.3982,0.3958,-0.0,0.0,0.0,-0.0,0.0002,0.0003,0.0002,0.0003,0,0,0,0,0.0,0.0,0.0,0.0,0.0,0.0,0.0,0.0,-0.0001,-0.0001,-0.0002,-0.0002,0.0001,0.0001,0.0002,0.0002,0.0012,0.001,0.0018,0.0017,3620,4,700,1,6,-337.1286,-20.6969,-190.1068,0,0,0,31.61,31.18,31.87,31.87,-11.025,0.9979,528.4749,0.0,0.0,606.956,771.8195,0,1,0,0,0,0,1,0,19,0,0.0008,0.0008,0.0013,0.0013,113
1,1083421,8499.9951,799.9995,800.0174,0.0,-0.0,-0.0,0.0,0.0002,0.0,-0.0002,-0.0,0.0002,-0.9551,0.0155,0.0109,0.4031,0.4002,0.3982,0.3958,-0.0,0.0,0.0,-0.0,0.0002,0.0003,0.0002,0.0003,0,0,0,0,0.0,0.0,0.0,0.0,0.0,0.0,0.0,0.0,-0.0001,-0.0001,-0.0002,-0.0002,0.0001,0.0001,0.0002,0.0002,0.0012,0.001,0.0018,0.0017,3620,4,700,1,6,-337.1286,-20.6969,-190.1068,0,0,0,31.61,31.18,31.87,31.87,-11.025,0.9979,528.4749,0.0,0.0,606.9727,771.8362,0,1,0,0,0,0,1,0,19,0,0.0008,0.0008,0.0013,0.0013,113
1,1083437,8499.9951,799.9995,800.0174,0.0,-0.0,-0.0,0.0,0.0002,0.0,-0.0002,-0.0,0.0002,-0.9551,0.0155,0.0109,0.4031,0.4002,0.3982,0.3958,-0.0,0.0,0.0,-0.0,0.0002,0.0003,0.0002,0.0003,0,0,0,0,0.0,0.0,0.0,0.0,0.0,0.0,0.0,0.0,-0.0001,-0.0001,-0.0002,-0.0002,0.0001,0.0001,0.0002,0.0002,0.0012,0.001,0.0018,0.0017,3620,4,700,1,6,-337.1286,-20.6969,-190.1068,0,0,0,31.61,31.17,31.87,31.87,-11.025,0.9979,528.4749,0.0,0.0,606.9893,771.8528,0,1,0,0,0,0,1,0,19,0,0.0008,0.0008,0.0013,0.0013,113
1,1083453,8499.9951,799.9995,800.0174,0.0,-0.0,-0.0,0.0,0.0002,0.0,-0.0002,-0.0,0.0002,-0.9551,0.0155,0.0109,0.4031,0.4002,0.3982,0.3958,-0.0,0.0,0.0,-0.0,0.0002,0.0003,0.0002,0.0003,0,0,0,0,0.0,0.0,0.0,0.0,0.0,0.0,0.0,0.0,-0.0001,-0.0001,-0.0002,-0.0002,0.0001,0.0001,0.0002,0.0002,0.0012,0.001,0.0018,0.0017,3620,4,700,1,6,-337.1286,-20.6969,-190.1068,0,0,0,31.6,31.17,31.86,31.86,-11.025,0.9979,528.4749,0.0,0.0,607.006,771.8695,0,1,0,0,0,0,1,0,19,0,0.0008,0.0008,0.0013,0.0013,113
1,1083468,8499.9951,799.9995,800.0174,0.0,-0.0,-0.0,0.0,0.0002,0.0,-0.0002,-0.0,0.0002,-0.9551,0.0155,0.0109,0.4031,0.4002,0.3982,0.3958,-0.0,0.0,0.0,-0.0,0.0002,0.0003,0.0002,0.0003,0,0,0,0,0.0,0.0,0.0,0.0,0.0,0.0,0.0,0.0,-0.0001,-0.0001,-0.0002,-0.0002,0.0001,0.0001,0.0002,0.0002,0.0012,0.001,0.0018,0.0017,3620,4,700,1,6,-337.1286,-20.6969,-190.1068,0,0,0,31.6,31.17,31.86,31.86,-11.025,0.9979,528.4749,0.0,0.0,607.0226,771.8862,0,1,0,0,0,0,1,0,19,0,0.0008,0.0008,0.0013,0.0013,113
1,1083500,8499.9951,799.9995,800.0174,0.0,-0.0,-0.0,0.0,0.0002,0.0,-0.0002,-0.0,0.0002,-0.9551,0.0155,0.0109,0.4031,0.4002,0.3982,0.3958,-0.0,0.0,0.0,-0.0,0.0002,0.0003,0.0002,0.0003,0,0,0,0,0.0,0.0,0.0,0.0,0.0,0.0,0.0,0.0,-0.0001,-0.0001,-0.0002,-0.0002,0.0001,0.0001,0.0002,0.0002,0.0012,0.001,0.0018,0.0017,3620,4,700,1,6,-337.1286,-20.6969,-190.1068,0,0,0,31.6,31.17,31.86,31.86,-11.025,0.9979,528.4749,0.0,0.0,607.0393,771.9028,0,1,0,0,0,0,1,0,19,0,0.0008,0.0008,0.0013,0.0013,113
1,1083515,8499.9951,799.9995,800.0174,0.0,-0.0,-0.0,0.0,0.0002,0.0,-0.0002,-0.0,0.0002,-0.9551,0.0155,0.0109,0.4031,0.4002,0.3982,0.3958,-0.0,0.0,0.0,-0.0,0.0002,0.0003,0.0002,0.0003,0,0,0,0,0.0,0.0,0.0,0.0,0.0,0.0,0.0,0.0,-0.0001,-0.0001,-0.0002,-0.0002,0.0001,0.0001,0.0002,0.0002,0.0012,0.001,0.0018,0.0017,3620,4,700,1,6,-337.1286,-20.6969,-190.1068,0,0,0,31.6,31.17,31.86,31.86,-11.025,0.9979,528.4749,0.0,0.0,607.056,771.9195,0,1,0,0,0,0,1,0,19,0,0.0008,0.0008,0.0013,0.0013,113
1,1083531,8499.9951,799.9995,800.0174,0.0,-0.0,-0.0,0.0,0.0002,0.0,-0.0002,-0.0,0.0002,-0.9551,0.0155,0.0109,0.4031,0.4002,0.3982,0.3958,-0.0,0.0,0.0,-0.0,0.0002,0.0003,0.0002,0.0003,0,0,0,0,0.0,0.0,0.0,0.0,0.0,0.0,0.0,0.0,-0.0001,-0.0001,-0.0002,-0.0002,0.0001,0.0001,0.0002,0.0002,0.0012,0.001,0.0018,0.0017,3620,4,700,1,6,-337.1286,-20.6969,-190.1068,0,0,0,31.6,31.17,31.86,31.86,-11.025,0.9979,528.4749,0.0,0.0,607.0726,771.9362,0,1,0,0,0,0,1,0,19,0,0.0008,0.0008,0.0013,0.0013,113
1,1083546,8499.9951,799.9995,800.0174,0.0,-0.0,-0.0,0.0,0.0002,0.0,-0.0002,-0.0,0.0002,-0.9551,0.0155,0.0109,0.4031,0.4002,0.3982,0.3958,-0.0,0.0,0.0,-0.0,0.0002,0.0003,0.0002,0.0003,0,0,0,0,0.0,0.0,0.0,0.0,0.0,0.0,0.0,0.0,-0.0001,-0.0001,-0.0002,-0.0002,0.0001,0.0001,0.0002,0.0002,0.0012,0.001,0.0018,0.0017,3620,4,700,1,6,-337.1286,-20.6969,-190.1068,0,0,0,31.6,31.17,31.86,31.86,-11.025,0.9979,528.4749,0.0,0.0,607.0894,771.9528,0,1,0,0,0,0,1,0,19,0,0.0008,0.0008,0.0013,0.0013,113
1,1083562,8499.9951,799.9995,800.0174,0.0,-0.0,-0.0,0.0,0.0002,0.0,-0.0002,-0.0,0.0002,-0.9551,0.0155,0.0109,0.4031,0.4002,0.3982,0.3958,-0.0,0.0,0.0,-0.0,0.0002,0.0003,0.0002,0.0003,0,0,0,0,0.0,0.0,0.0,0.0,0.0,0.0,0.0,0.0,-0.0001,-0.0001,-0.0002,-0.0002,0.0001,0.0001,0.0002,0.0002,0.0012,0.001,0.0018,0.0017,3620,4,700,1,6,-337.1286,-20.6969,-190.1068,0,0,0,31.6,31.16,31.86,31.86,-11.025,0.9979,528.4749,0.0,0.0,607.106,771.9695,0,1,0,0,0,0,1,0,19,0,0.0008,0.0008,0.0013,0.0013,113
1,1083578,8499.9951,799.9995,800.0174,0.0,-0.0,-0.0,0.0,0.0002,0.0,-0.0002,-0.0,0.0002,-0.9551,0.0155,0.0109,0.4031,0.4002,0.3982,0.3958,-0.0,0.0,0.0,-0.0,0.0002,0.0003,0.0002,0.0003,0,0,0,0,0.0,0.0,0.0,0.0,0.0,0.0,0.0,0.0,-0.0001,-0.0001,-0.0002,-0.0002,0.0001,0.0001,0.0002,0.0002,0.0012,0.001,0.0018,0.0017,3620,4,700,1,6,-337.1286,-20.6969,-190.1068,0,0,0,31.59,31.16,31.85,31.85,-11.025,0.9979,528.4749,0.0,0.0,607.1227,771.9861,0,1,0,0,0,0,1,0,19,0,0.0008,0.0008,0.0013,0.0013,113
1,1083593,8499.9951,799.9995,800.0174,0.0,-0.0,-0.0,0.0,0.0002,0.0,-0.0002,-0.0,0.0002,-0.9551,0.0155,0.0109,0.4031,0.4002,0.3982,0.3958,-0.0,0.0,0.0,-0.0,0.0002,0.0003,0.0002,0.0003,0,0,0,0,0.0,0.0,0.0,0.0,0.0,0.0,0.0,0.0,-0.0001,-0.0001,-0.0002,-0.0002,0.0001,0.0001,0.0002,0.0002,0.0012,0.001,0.0018,0.0017,3620,4,700,1,6,-337.1286,-20.6969,-190.1068,0,0,0,31.59,31.16,31.85,31.85,-11.025,0.9979,528.4749,0.0,0.0,607.1393,772.0028,0,1,0,0,0,0,1,0,19,0,0.0008,0.0008,0.0013,0.0013,113
1,1083609,8499.9951,799.9995,800.0174,0.0,-0.0,-0.0,0.0,0.0002,0.0,-0.0002,-0.0,0.0002,-0.9551,0.0155,0.0109,0.4031,0.4002,0.3982,0.3958,-0.0,0.0,0.0,-0.0,0.0002,0.0003,0.0002,0.0003,0,0,0,0,0.0,0.0,0.0,0.0,0.0,0.0,0.0,0.0,-0.0001,-0.0001,-0.0002,-0.0002,0.0001,0.0001,0.0002,0.0002,0.0012,0.001,0.0018,0.0017,3620,4,700,1,6,-337.1286,-20.6969,-190.1068,0,0,0,31.59,31.16,31.85,31.85,-11.025,0.9979,528.4749,0.0,0.0,607.156,772.0195,0,1,0,0,0,0,1,0,19,0,0.0008,0.0008,0.0013,0.0013,113
1,1083625,8499.9951,799.9995,800.0174,0.0,-0.0,-0.0,0.0,0.0002,0.0,-0.0002,-0.0,0.0002,-0.9551,0.0155,0.0109,0.4031,0.4002,0.3982,0.3958,-0.0,0.0,0.0,-0.0,0.0002,0.0003,0.0002,0.0003,0,0,0,0,0.0,0.0,0.0,0.0,0.0,0.0,0.0,0.0,-0.0001,-0.0001,-0.0002,-0.0002,0.0001,0.0001,0.0002,0.0002,0.0012,0.001,0.0018,0.0017,3620,4,700,1,6,-337.1286,-20.6969,-190.1068,0,0,0,31.59,31.16,31.85,31.85,-11.025,0.9979,528.4749,0.0,0.0,607.1727,772.0361,0,1,0,0,0,0,1,0,19,0,0.0008,0.0008,0.0013,0.0013,113
1,1083640,8499.9951,799.9995,800.0174,0.0,-0.0,-0.0,0.0,0.0002,0.0,-0.0002,-0.0,0.0002,-0.9551,0.0155,0.0109,0.4031,0.4002,0.3982,0.3958,-0.0,0.0,0.0,-0.0,0.0002,0.0003,0.0002,0.0003,0,0,0,0,0.0,0.0,0.0,0.0,0.0,0.0,0.0,0.0,-0.0001,-0.0001,-0.0002,-0.0002,0.0001,0.0001,0.0002,0.0002,0.0012,0.001,0.0018,0.0017,3620,4,700,1,6,-337.1286,-20.6969,-190.1068,0,0,0,31.59,31.16,31.85,31.85,-11.025,0.9979,528.4749,0.0,0.0,607.1893,772.0528,0,1,0,0,0,0,1,0,19,0,0.0008,0.0008,0.0013,0.0013,113
1,1083656,8499.9951,799.9995,800.0174,0.0,-0.0,-0.0,0.0,0.0002,0.0,-0.0002,-0.0,0.0002,-0.9551,0.0155,0.0109,0.4031,0.4002,0.3982,0.3958,-0.0,0.0,0.0,-0.0,0.0002,0.0003,0.0002,0.0003,0,0,0,0,0.0,0.0,0.0,0.0,0.0,0.0,0.0,0.0,-0.0001,-0.0001,-0.0002,-0.0002,0.0001,0.0001,0.0002,0.0002,0.0012,0.001,0.0018,0.0017,3620,4,700,1,6,-337.1286,-20.6969,-190.1068,0,0,0,31.59,31.15,31.85,31.85,-11.025,0.9979,528.4749,0.0,0.0,607.206,772.0695,0,1,0,0,0,0,1,0,19,0,0.0008,0.0008,0.0013,0.0013,113
1,1083671,8499.9951,799.9995,800.0174,0.0,-0.0,-0.0,0.0,0.0002,0.0,-0.0002,-0.0,0.0002,-0.9551,0.0155,0.0109,0.4031,0.4002,0.3982,0.3958,-0.0,0.0,0.0,-0.0,0.0002,0.0003,0.0002,0.0003,0,0,0,0,0.0,0.0,0.0,0.0,0.0,0.0,0.0,0.0,-0.0001,-0.0001,-0.0002,-0.0002,0.0001,0.0001,0.0002,0.0002,0.0012,0.001,0.0018,0.0017,3620,4,700,1,6,-337.1286,-20.6969,-190.1068,0,0,0,31.58,31.15,31.84,31.84,-11.025,0.9979,528.4749,0.0,0.0,607.2227,772.0862,0,1,0,0,0,0,1,0,19,0,0.0008,0.0008,0.0013,0.0013,113
1,1083687,8499.9951,799.9995,800.0174,0.0,-0.0,-0.0,0.0,0.0002,0.0,-0.0002,-0.0,0.0002,-0.9551,0.0155,0.0109,0.4031,0.4002,0.3982,0.3958,-0.0,0.0,0.0,-0.0,0.0002,0.0003,0.0002,0.0003,0,0,0,0,0.0,0.0,0.0,0.0,0.0,0.0,0.0,0.0,-0.0001,-0.0001,-0.0002,-0.0002,0.0001,0.0001,0.0002,0.0002,0.0012,0.001,0.0018,0.0017,3620,4,700,1,6,-337.1286,-20.6969,-190.1068,0,0,0,31.58,31.15,31.84,31.84,-11.025,0.9979,528.4749,0.0,0.0,607.2393,772.1028,0,1,0,0,0,0,1,0,19,0,0.0008,0.0008,0.0013,0.0013,113
1,1083703,8499.9951,799.9995,800.0174,0.0,-0.0,-0.0,0.0,0.0002,0.0,-0.0002,-0.0,0.0002,-0.9551,0.0155,0.0109,0.4031,0.4002,0.3982,0.3958,-0.0,0.0,0.0,-0.0,0.0002,0.0003,0.0002,0.0003,0,0,0,0,0.0,0.0,0.0,0.0,0.0,0.0,0.0,0.0,-0.0001,-0.0001,-0.0002,-0.0002,0.0001,0.0001,0.0002,0.0002,0.0012,0.001,0.0018,0.0017,3620,4,700,1,6,-337.1286,-20.6969,-190.1068,0,0,0,31.58,31.15,31.84,31.84,-11.025,0.9979,528.4749,0.0,0.0,607.256,772.1195,0,1,0,0,0,0,1,0,19,0,0.0008,0.0008,0.0013,0.0013,113
1,1083718,8499.9951,799.9995,800.0174,0.0,-0.0,-0.0,0.0,0.0002,0.0,-0.0002,-0.0,0.0002,-0.9551,0.0155,0.0109,0.4031,0.4002,0.3982,0.3958,-0.0,0.0,0.0,-0.0,0.0002,0.0003,0.0002,0.0003,0,0,0,0,0.0,0.0,0.0,0.0,0.0,0.0,0.0,0.0,-0.0001,-0.0001,-0.0002,-0.0002,0.0001,0.0001,0.0002,0.0002,0.0012,0.001,0.0018,0.0017,3620,4,700,1,6,-337.1286,-20.6969,-190.1068,0,0,0,31.58,31.15,31.84,31.84,-11.025,0.9979,528.4749,0.0,0.0,607.2726,772.1362,0,1,0,0,0,0,1,0,19,0,0.0008,0.0008,0.0013,0.0013,113
1,1083750,8499.9951,799.9995,800.0174,0.0,-0.0,-0.0,0.0,0.0002,0.0,-0.0002,-0.0,0.0002,-0.9551,0.0155,0.0109,0.4031,0.4002,0.3982,0.3958,-0.0,0.0,0.0,-0.0,0.0002,0.0003,0.0002,0.0003,0,0,0,0,0.0,0.0,0.0,0.0,0.0,0.0,0.0,0.0,-0.0001,-0.0001,-0.0002,-0.0002,0.0001,0.0001,0.0002,0.0002,0.0012,0.001,0.0018,0.0017,3620,4,700,1,6,-337.1286,-20.6969,-190.1068,0,0,0,31.58,31.15,31.84,31.84,-11.025,0.9979,528.4749,0.0,0.0,607.2893,772.1528,0,1,0,0,0,0,1,0,19,0,0.0008,0.0008,0.0013,0.0013,113
1,1083765,8499.9951,799.9995,800.0174,0.0,-0.0,-0.0,0.0,0.0002,0.0,-0.0002,-0.0,0.0002,-0.9551,0.0155,0.0109,0.4031,0.4002,0.3982,0.3958,-0.0,0.0,0.0,-0.0,0.0002,0.0003,0.0002,0.0003,0,0,0,0,0.0,0.0,0.0,0.0,0.0,0.0,0.0,0.0,-0.0001,-0.0001,-0.0002,-0.0002,0.0001,0.0001,0.0002,0.0002,0.0012,0.001,0.0018,0.0017,3620,4,700,1,6,-337.1286,-20.6969,-190.1068,0,0,0,31.58,31.15,31.84,31.84,-11.025,0.9979,528.4749,0.0,0.0,607.306,772.1695,0,1,0,0,0,0,1,0,19,0,0.0008,0.0008,0.0013,0.0013,113
1,1083781,8499.9951,799.9995,800.0174,0.0,-0.0,-0.0,0.0,0.0002,0.0,-0.0002,-0.0,0.0002,-0.9551,0.0155,0.0109,0.4031,0.4002,0.3982,0.3958,-0.0,0.0,0.0,-0.0,0.0002,0.0003,0.0002,0.0003,0,0,0,0,0.0,0.0,0.0,0.0,0.0,0.0,0.0,0.0,-0.0001,-0.0001,-0.0002,-0.0002,0.0001,0.0001,0.0002,0.0002,0.0012,0.001,0.0018,0.0017,3620,4,700,1,6,-337.1286,-20.6969,-190.1068,0,0,0,31.58,31.14,31.83,31.83,-11.025,0.9979,528.4749,0.0,0.0,607.3226,772.1862,0,1,0,0,0,0,1,0,19,0,0.0008,0.0008,0.0013,0.0013,113
1,1083796,8499.9951,799.9995,800.0174,0.0,-0.0,-0.0,0.0,0.0002,0.0,-0.0002,-0.0,0.0002,-0.9551,0.0155,0.0109,0.4031,0.4002,0.3982,0.3958,-0.0,0.0,0.0,-0.0,0.0002,0.0003,0.0002,0.0003,0,0,0,0,0.0,0.0,0.0,0.0,0.0,0.0,0.0,0.0,-0.0001,-0.0001,-0.0002,-0.0002,0.0001,0.0001,0.0002,0.0002,0.0012,0.001,0.0018,0.0017,3620,4,700,1,6,-337.1286,-20.6969,-190.1068,0,0,0,31.57,31.14,31.83,31.83,-11.025,0.9979,528.4749,0.0,0.0,607.3394,772.2028,0,1,0,0,0,0,1,0,19,0,0.0008,0.0008,0.0013,0.0013,113
1,1083812,8499.9951,799.9995,800.0174,0.0,-0.0,-0.0,0.0,0.0002,0.0,-0.0002,-0.0,0.0002,-0.9551,0.0155,0.0109,0.4031,0.4002,0.3982,0.3958,-0.0,0.0,0.0,-0.0,0.0002,0.0003,0.0002,0.0003,0,0,0,0,0.0,0.0,0.0,0.0,0.0,0.0,0.0,0.0,-0.0001,-0.0001,-0.0002,-0.0002,0.0001,0.0001,0.0002,0.0002,0.0012,0.001,0.0018,0.0017,3620,4,700,1,6,-337.1286,-20.6969,-190.1068,0,0,0,31.57,31.14,31.83,31.83,-11.025,0.9979,528.4749,0.0,0.0,607.356,772.2195,0,1,0,0,0,0,1,0,19,0,0.0008,0.0008,0.0013,0.0013,113
1,1083828,8499.9951,799.9995,800.0174,0.0,-0.0,-0.0,0.0,0.0002,0.0,-0.0002,-0.0,0.0002,-0.9551,0.0155,0.0109,0.4031,0.4002,0.3982,0.3958,-0.0,0.0,0.0,-0.0,0.0002,0.0003,0.0002,0.0003,0,0,0,0,0.0,0.0,0.0,0.0,0.0,0.0,0.0,0.0,-0.0001,-0.0001,-0.0002,-0.0002,0.0001,0.0001,0.0002,0.0002,0.0012,0.001,0.0018,0.0017,3620,4,700,1,6,-337.1286,-20.6969,-190.1068,0,0,0,31.57,31.14,31.83,31.83,-11.025,0.9979,528.4749,0.0,0.0,607.3727,772.2361,0,1,0,0,0,0,1,0,19,0,0.0008,0.0008,0.0013,0.0013,113
1,1083843,8499.9951,799.9995,800.0174,0.0,-0.0,-0.0,0.0,0.0002,0.0,-0.0002,-0.0,0.0002,-0.9551,0.0155,0.0109,0.4031,0.4002,0.3982,0.3958,-0.0,0.0,0.0,-0.0,0.0002,0.0003,0.0002,0.0003,0,0,0,0,0.0,0.0,0.0,0.0,0.0,0.0,0.0,0.0,-0.0001,-0.0001,-0.0002,-0.0002,0.0001,0.0001,0.0002,0.0002,0.0012,0.001,0.0018,0.0017,3620,4,700,1,6,-337.1286,-20.6969,-190.1068,0,0,0,31.57,31.14,31.83,31.83,-11.025,0.9979,528.4749,0.0,0.0,607.3893,772.2528,0,1,0,0,0,0,1,0,19,0,0.0008,0.0008,0.0013,0.0013,113
1,1083859,8499.9951,799.9995,800.0174,0.0,-0.0,-0.0,0.0,0.0002,0.0,-0.0002,-0.0,0.0002,-0.9551,0.0155,0.0109,0.4031,0.4002,0.3982,0.3958,-0.0,0.0,0.0,-0.0,0.0002,0.0003,0.0002,0.0003,0,0,0,0,0.0,0.0,0.0,0.0,0.0,0.0,0.0,0.0,-0.0001,-0.0001,-0.0002,-0.0002,0.0001,0.0001,0.0002,0.0002,0.0012,0.001,0.0018,0.0017,3620,4,700,1,6,-337.1286,-20.6969,-190.1068,0,0,0,31.57,31.14,31.83,31.83,-11.025,0.9979,528.4749,0.0,0.0,607.406,772.2695,0,1,0,0,0,0,1,0,19,0,0.0008,0.0008,0.0013,0.0013,113
1,1083875,8499.9951,799.9995,800.0174,0.0,-0.0,-0.0,0.0,0.0002,0.0,-0.0002,-0.0,0.0002,-0.9551,0.0155,0.0109,0.4031,0.4002,0.3982,0.3958,-0.0,0.0,0.0,-0.0,0.0002,0.0003,0.0002,0.0003,0,0,0,0,0.0,0.0,0.0,0.0,0.0,0.0,0.0,0.0,-0.0001,-0.0001,-0.0002,-0.0002,0.0001,0.0001,0.0002,0.0002,0.0012,0.001,0.0018,0.0017,3620,4,700,1,6,-337.1286,-20.6969,-190.1068,0,0,0,31.57,31.14,31.83,31.83,-11.025,0.9979,528.4749,0.0,0.0,607.4227,772.2861,0,1,0,0,0,0,1,0,19,0,0.0008,0.0008,0.0013,0.0013,113
1,1083890,8499.9951,799.9995,800.0174,0.0,-0.0,-0.0,0.0,0.0002,0.0,-0.0002,-0.0,0.0002,-0.9551,0.0155,0.0109,0.4031,0.4002,0.3982,0.3958,-0.0,0.0,0.0,-0.0,0.0002,0.0003,0.0002,0.0003,0,0,0,0,0.0,0.0,0.0,0.0,0.0,0.0,0.0,0.0,-0.0001,-0.0001,-0.0002,-0.0002,0.0001,0.0001,0.0002,0.0002,0.0012,0.001,0.0018,0.0017,3620,4,700,1,6,-337.1286,-20.6969,-190.1068,0,0,0,31.56,31.13,31.82,31.82,-11.025,0.9979,528.4749,0.0,0.0,607.4393,772.3028,0,1,0,0,0,0,1,0,19,0,0.0008,0.0008,0.0013,0.0013,113
1,1083906,8499.9951,799.9995,800.0174,0.0,-0.0,-0.0,0.0,0.0002,0.0,-0.0002,-0.0,0.0002,-0.9551,0.0155,0.0109,0.4031,0.4002,0.3982,0.3958,-0.0,0.0,0.0,-0.0,0.0002,0.0003,0.0002,0.0003,0,0,0,0,0.0,0.0,0.0,0.0,0.0,0.0,0.0,0.0,-0.0001,-0.0001,-0.0002,-0.0002,0.0001,0.0001,0.0002,0.0002,0.0012,0.001,0.0018,0.0017,3620,4,700,1,6,-337.1286,-20.6969,-190.1068,0,0,0,31.56,31.13,31.82,31.82,-11.025,0.9979,528.4749,0.0,0.0,607.456,772.3195,0,1,0,0,0,0,1,0,19,0,0.0008,0.0008,0.0013,0.0013,113
1,1083921,8499.9951,799.9995,800.0174,0.0,-0.0,-0.0,0.0,0.0002,0.0,-0.0002,-0.0,0.0002,-0.9551,0.0155,0.0109,0.4031,0.4002,0.3982,0.3958,-0.0,0.0,0.0,-0.0,0.0002,0.0003,0.0002,0.0003,0,0,0,0,0.0,0.0,0.0,0.0,0.0,0.0,0.0,0.0,-0.0001,-0.0001,-0.0002,-0.0002,0.0001,0.0001,0.0002,0.0002,0.0012,0.001,0.0018,0.0017,3620,4,700,1,6,-337.1286,-20.6969,-190.1068,0,0,0,31.56,31.13,31.82,31.82,-11.025,0.9979,528.4749,0.0,0.0,607.4727,772.3362,0,1,0,0,0,0,1,0,19,0,0.0008,0.0008,0.0013,0.0013,113
1,1083937,8499.9951,799.9995,800.0174,0.0,-0.0,-0.0,0.0,0.0002,0.0,-0.0002,-0.0,0.0002,-0.9551,0.0155,0.0109,0.4031,0.4002,0.3982,0.3958,-0.0,0.0,0.0,-0.0,0.0002,0.0003,0.0002,0.0003,0,0,0,0,0.0,0.0,0.0,0.0,0.0,0.0,0.0,0.0,-0.0001,-0.0001,-0.0002,-0.0002,0.0001,0.0001,0.0002,0.0002,0.0012,0.001,0.0018,0.0017,3620,4,700,1,6,-337.1286,-20.6969,-190.1068,0,0,0,31.56,31.13,31.82,31.82,-11.025,0.9979,528.4749,0.0,0.0,607.4893,772.3528,0,1,0,0,0,0,1,0,19,0,0.0008,0.0008,0.0013,0.0013,113
1,1083953,8499.9951,799.9995,800.0174,0.0,-0.0,-0.0,0.0,0.0002,0.0,-0.0002,-0.0,0.0002,-0.9551,0.0155,0.0109,0.4031,0.4002,0.3982,0.3958,-0.0,0.0,0.0,-0.0,0.0002,0.0003,0.0002,0.0003,0,0,0,0,0.0,0.0,0.0,0.0,0.0,0.0,0.0,0.0,-0.0001,-0.0001,-0.0002,-0.0002,0.0001,0.0001,0.0002,0.0002,0.0012,0.001,0.0018,0.0017,3620,4,700,1,6,-337.1286,-20.6969,-190.1068,0,0,0,31.56,31.13,31.82,31.82,-11.025,0.9979,528.4749,0.0,0.0,607.506,772.3695,0,1,0,0,0,0,1,0,19,0,0.0008,0.0008,0.0013,0.0013,113
1,1083984,8499.9951,799.9995,800.0174,0.0,-0.0,-0.0,0.0,0.0002,0.0,-0.0002,-0.0,0.0002,-0.9551,0.0155,0.0109,0.4031,0.4002,0.3982,0.3958,-0.0,0.0,0.0,-0.0,0.0002,0.0003,0.0002,0.0003,0,0,0,0,0.0,0.0,0.0,0.0,0.0,0.0,0.0,0.0,-0.0001,-0.0001,-0.0002,-0.0002,0.0001,0.0001,0.0002,0.0002,0.0012,0.001,0.0018,0.0017,3620,4,700,1,6,-337.1286,-20.6969,-190.1068,0,0,0,31.56,31.13,31.82,31.82,-11.025,0.9979,528.4749,0.0,0.0,607.5226,772.3862,0,1,0,0,0,0,1,0,19,0,0.0008,0.0008,0.0013,0.0013,113
1,1084000,8499.9951,799.9995,800.0174,0.0,-0.0,-0.0,0.0,0.0002,0.0,-0.0002,-0.0,0.0002,-0.9551,0.0155,0.0109,0.4031,0.4002,0.3982,0.3958,-0.0,0.0,0.0,-0.0,0.0002,0.0003,0.0002,0.0003,0,0,0,0,0.0,0.0,0.0,0.0,0.0,0.0,0.0,0.0,-0.0001,-0.0001,-0.0002,-0.0002,0.0001,0.0001,0.0002,0.0002,0.0012,0.001,0.0018,0.0017,3620,4,700,1,6,-337.1286,-20.6969,-190.1068,0,0,0,31.56,31.12,31.81,31.81,-11.025,0.9979,528.4749,0.0,0.0,607.5393,772.4028,0,1,0,0,0,0,1,0,19,0,0.0008,0.0008,0.0013,0.0013,113
1,1084015,8499.9951,799.9995,800.0174,0.0,-0.0,-0.0,0.0,0.0002,0.0,-0.0002,-0.0,0.0002,-0.9551,0.0155,0.0109,0.4031,0.4002,0.3982,0.3958,-0.0,0.0,0.0,-0.0,0.0002,0.0003,0.0002,0.0003,0,0,0,0,0.0,0.0,0.0,0.0,0.0,0.0,0.0,0.0,-0.0001,-0.0001,-0.0002,-0.0002,0.0001,0.0001,0.0002,0.0002,0.0012,0.001,0.0018,0.0017,3620,4,700,1,6,-337.1286,-20.6969,-190.1068,0,0,0,31.55,31.12,31.81,31.81,-11.025,0.9979,528.4749,0.0,0.0,607.556,772.4195,0,1,0,0,0,0,1,0,19,0,0.0008,0.0008,0.0013,0.0013,113
1,1084031,8499.9951,799.9995,800.0174,0.0,-0.0,-0.0,0.0,0.0002,0.0,-0.0002,-0.0,0.0002,-0.9551,0.0155,0.0109,0.4031,0.4002,0.3982,0.3958,-0.0,0.0,0.0,-0.0,0.0002,0.0003,0.0002,0.0003,0,0,0,0,0.0,0.0,0.0,0.0,0.0,0.0,0.0,0.0,-0.0001,-0.0001,-0.0002,-0.0002,0.0001,0.0001,0.0002,0.0002,0.0012,0.001,0.0018,0.0017,3620,4,700,1,6,-337.1286,-20.6969,-190.1068,0,0,0,31.55,31.12,31.81,31.81,-11.025,0.9979,528.4749,0.0,0.0,607.5726,772.4362,0,1,0,0,0,0,1,0,19,0,0.0008,0.0008,0.0013,0.0013,113
1,1084046,8499.9951,799.9995,800.0174,0.0,-0.0,-0.0,0.0,0.0002,0.0,-0.0002,-0.0,0.0002,-0.9551,0.0155,0.0109,0.4031,0.4002,0.3982,0.3958,-0.0,0.0,0.0,-0.0,0.0002,0.0003,0.0002,0.0003,0,0,0,0,0.0,0.0,0.0,0.0,0.0,0.0,0.0,0.0,-0.0001,-0.0001,-0.0002,-0.0002,0.0001,0.0001,0.0002,0.0002,0.0012,0.001,0.0018,0.0017,3620,4,700,1,6,-337.1286,-20.6969,-190.1068,0,0,0,31.55,31.12,31.81,31.81,-11.025,0.9979,528.4749,0.0,0.0,607.5894,772.4528,0,1,0,0,0,0,1,0,19,0,0.0008,0.0008,0.0013,0.0013,113
1,1084062,8499.9951,799.9995,800.0174,0.0,-0.0,-0.0,0.0,0.0002,0.0,-0.0002,-0.0,0.0002,-0.9551,0.0155,0.0109,0.4031,0.4002,0.3982,0.3958,-0.0,0.0,0.0,-0.0,0.0002,0.0003,0.0002,0.0003,0,0,0,0,0.0,0.0,0.0,0.0,0.0,0.0,0.0,0.0,-0.0001,-0.0001,-0.0002,-0.0002,0.0001,0.0001,0.0002,0.0002,0.0012,0.001,0.0018,0.0017,3620,4,700,1,6,-337.1286,-20.6969,-190.1068,0,0,0,31.55,31.12,31.81,31.81,-11.025,0.9979,528.4749,0.0,0.0,607.606,772.4695,0,1,0,0,0,0,1,0,19,0,0.0008,0.0008,0.0013,0.0013,113
1,1084078,8499.9951,799.9995,800.0174,0.0,-0.0,-0.0,0.0,0.0002,0.0,-0.0002,-0.0,0.0002,-0.9551,0.0155,0.0109,0.4031,0.4002,0.3982,0.3958,-0.0,0.0,0.0,-0.0,0.0002,0.0003,0.0002,0.0003,0,0,0,0,0.0,0.0,0.0,0.0,0.0,0.0,0.0,0.0,-0.0001,-0.0001,-0.0002,-0.0002,0.0001,0.0001,0.0002,0.0002,0.0012,0.001,0.0018,0.0017,3620,4,700,1,6,-337.1286,-20.6969,-190.1068,0,0,0,31.55,31.12,31.81,31.81,-11.025,0.9979,528.4749,0.0,0.0,607.6227,772.4861,0,1,0,0,0,0,1,0,19,0,0.0008,0.0008,0.0013,0.0013,113
1,1084093,8499.9951,799.9995,800.0174,0.0,-0.0,-0.0,0.0,0.0002,0.0,-0.0002,-0.0,0.0002,-0.9551,0.0155,0.0109,0.4031,0.4002,0.3982,0.3958,-0.0,0.0,0.0,-0.0,0.0002,0.0003,0.0002,0.0003,0,0,0,0,0.0,0.0,0.0,0.0,0.0,0.0,0.0,0.0,-0.0001,-0.0001,-0.0002,-0.0002,0.0001,0.0001,0.0002,0.0002,0.0012,0.001,0.0018,0.0017,3620,4,700,1,6,-337.1286,-20.6969,-190.1068,0,0,0,31.55,31.12,31.8,31.8,-11.025,0.9979,528.4749,0.0,0.0,607.6393,772.5028,0,1,0,0,0,0,1,0,19,0,0.0008,0.0008,0.0013,0.0013,113
1,1084109,8499.9951,799.9995,800.0174,0.0,-0.0,-0.0,0.0,0.0002,0.0,-0.0002,-0.0,0.0002,-0.9551,0.0155,0.0109,0.4031,0.4002,0.3982,0.3958,-0.0,0.0,0.0,-0.0,0.0002,0.0003,0.0002,0.0003,0,0,0,0,0.0,0.0,0.0,0.0,0.0,0.0,0.0,0.0,-0.0001,-0.0001,-0.0002,-0.0002,0.0001,0.0001,0.0002,0.0002,0.0012,0.001,0.0018,0.0017,3620,4,700,1,6,-337.1286,-20.6969,-190.1068,0,0,0,31.54,31.11,31.8,31.8,-11.025,0.9979,528.4749,0.0,0.0,607.656,772.5195,0,1,0,0,0,0,1,0,19,0,0.0008,0.0008,0.0013,0.0013,113
1,1084125,8499.9951,799.9995,800.0174,0.0,-0.0,-0.0,0.0,0.0002,0.0,-0.0002,-0.0,0.0002,-0.9551,0.0155,0.0109,0.4031,0.4002,0.3982,0.3958,-0.0,0.0,0.0,-0.0,0.0002,0.0003,0.0002,0.0003,0,0,0,0,0.0,0.0,0.0,0.0,0.0,0.0,0.0,0.0,-0.0001,-0.0001,-0.0002,-0.0002,0.0001,0.0001,0.0002,0.0002,0.0012,0.001,0.0018,0.0017,3620,4,700,1,6,-337.1286,-20.6969,-190.1068,0,0,0,31.54,31.11,31.8,31.8,-11.025,0.9979,528.4749,0.0,0.0,607.6727,772.5361,0,1,0,0,0,0,1,0,19,0,0.0008,0.0008,0.0013,0.0013,113
1,1084140,8499.9951,799.9995,800.0174,0.0,-0.0,-0.0,0.0,0.0002,0.0,-0.0002,-0.0,0.0002,-0.9551,0.0155,0.0109,0.4031,0.4002,0.3982,0.3958,-0.0,0.0,0.0,-0.0,0.0002,0.0003,0.0002,0.0003,0,0,0,0,0.0,0.0,0.0,0.0,0.0,0.0,0.0,0.0,-0.0001,-0.0001,-0.0002,-0.0002,0.0001,0.0001,0.0002,0.0002,0.0012,0.001,0.0018,0.0017,3620,4,700,1,6,-337.1286,-20.6969,-190.1068,0,0,0,31.54,31.11,31.8,31.8,-11.025,0.9979,528.4749,0.0,0.0,607.6893,772.5528,0,1,0,0,0,0,1,0,19,0,0.0008,0.0008,0.0013,0.0013,113
1,1084156,8499.9951,799.9995,800.0174,0.0,-0.0,-0.0,0.0,0.0002,0.0,-0.0002,-0.0,0.0002,-0.9551,0.0155,0.0109,0.4031,0.4002,0.3982,0.3958,-0.0,0.0,0.0,-0.0,0.0002,0.0003,0.0002,0.0003,0,0,0,0,0.0,0.0,0.0,0.0,0.0,0.0,0.0,0.0,-0.0001,-0.0001,-0.0002,-0.0002,0.0001,0.0001,0.0002,0.0002,0.0012,0.001,0.0018,0.0017,3620,4,700,1,6,-337.1286,-20.6969,-190.1068,0,0,0,31.54,31.11,31.8,31.8,-11.025,0.9979,528.4749,0.0,0.0,607.706,772.5695,0,1,0,0,0,0,1,0,19,0,0.0008,0.0008,0.0013,0.0013,113
1,1084171,8499.9951,799.9995,800.0174,0.0,-0.0,-0.0,0.0,0.0002,0.0,-0.0002,-0.0,0.0002,-0.9551,0.0155,0.0109,0.4031,0.4002,0.3982,0.3958,-0.0,0.0,0.0,-0.0,0.0002,0.0003,0.0002,0.0003,0,0,0,0,0.0,0.0,0.0,0.0,0.0,0.0,0.0,0.0,-0.0001,-0.0001,-0.0002,-0.0002,0.0001,0.0001,0.0002,0.0002,0.0012,0.001,0.0018,0.0017,3620,4,700,1,6,-337.1286,-20.6969,-190.1068,0,0,0,31.54,31.11,31.8,31.8,-11.025,0.9979,528.4749,0.0,0.0,607.7227,772.5862,0,1,0,0,0,0,1,0,19,0,0.0008,0.0008,0.0013,0.0013,113
1,1084187,8499.9951,799.9995,800.0174,0.0,-0.0,-0.0,0.0,0.0002,0.0,-0.0002,-0.0,0.0002,-0.9551,0.0155,0.0109,0.4031,0.4002,0.3982,0.3958,-0.0,0.0,0.0,-0.0,0.0002,0.0003,0.0002,0.0003,0,0,0,0,0.0,0.0,0.0,0.0,0.0,0.0,0.0,0.0,-0.0001,-0.0001,-0.0002,-0.0002,0.0001,0.0001,0.0002,0.0002,0.0012,0.001,0.0018,0.0017,3620,4,700,1,6,-337.1286,-20.6969,-190.1068,0,0,0,31.54,31.11,31.8,31.8,-11.025,0.9979,528.4749,0.0,0.0,607.7393,772.6028,0,1,0,0,0,0,1,0,19,0,0.0008,0.0008,0.0013,0.0013,113
1,1084203,8499.9951,799.9995,800.0174,0.0,-0.0,-0.0,0.0,0.0002,0.0,-0.0002,-0.0,0.0002,-0.9551,0.0155,0.0109,0.4031,0.4002,0.3982,0.3958,-0.0,0.0,0.0,-0.0,0.0002,0.0003,0.0002,0.0003,0,0,0,0,0.0,0.0,0.0,0.0,0.0,0.0,0.0,0.0,-0.0001,-0.0001,-0.0002,-0.0002,0.0001,0.0001,0.0002,0.0002,0.0012,0.001,0.0018,0.0017,3620,4,700,1,6,-337.1286,-20.6969,-190.1068,0,0,0,31.54,31.11,31.79,31.79,-11.025,0.9979,528.4749,0.0,0.0,607.756,772.6195,0,1,0,0,0,0,1,0,19,0,0.0008,0.0008,0.0013,0.0013,113
1,1084234,8499.9951,799.9995,800.0174,0.0,-0.0,-0.0,0.0,0.0002,0.0,-0.0002,-0.0,0.0002,-0.9551,0.0155,0.0109,0.4031,0.4002,0.3982,0.3958,-0.0,0.0,0.0,-0.0,0.0002,0.0003,0.0002,0.0003,0,0,0,0,0.0,0.0,0.0,0.0,0.0,0.0,0.0,0.0,-0.0001,-0.0001,-0.0002,-0.0002,0.0001,0.0001,0.0002,0.0002,0.0012,0.001,0.0018,0.0017,3620,4,700,1,6,-337.1286,-20.6969,-190.1068,0,0,0,31.53,31.1,31.79,31.79,-11.025,0.9979,528.4749,0.0,0.0,607.7755,772.6389,0,1,0,0,0,0,1,0,19,0,0.0008,0.0008,0.0013,0.0013,113
1,1084250,8499.9951,799.9995,800.0174,0.0,-0.0,-0.0,0.0,0.0002,0.0,-0.0002,-0.0,0.0002,-0.9551,0.0155,0.0109,0.4031,0.4002,0.3982,0.3958,-0.0,0.0,0.0,-0.0,0.0002,0.0003,0.0002,0.0003,0,0,0,0,0.0,0.0,0.0,0.0,0.0,0.0,0.0,0.0,-0.0001,-0.0001,-0.0002,-0.0002,0.0001,0.0001,0.0002,0.0002,0.0012,0.001,0.0018,0.0017,3620,4,700,1,6,-337.1286,-20.6969,-190.1068,0,0,0,31.53,31.1,31.79,31.79,-11.025,0.9979,528.4749,0.0,0.0,607.7921,772.6556,0,1,0,0,0,0,1,0,19,0,0.0008,0.0008,0.0013,0.0013,113
1,1084265,8499.9951,799.9995,800.0174,0.0,-0.0,-0.0,0.0,0.0002,0.0,-0.0002,-0.0,0.0002,-0.9551,0.0155,0.0109,0.4031,0.4002,0.3982,0.3958,-0.0,0.0,0.0,-0.0,0.0002,0.0003,0.0002,0.0003,0,0,0,0,0.0,0.0,0.0,0.0,0.0,0.0,0.0,0.0,-0.0001,-0.0001,-0.0002,-0.0002,0.0001,0.0001,0.0002,0.0002,0.0012,0.001,0.0018,0.0017,3620,4,700,1,6,-337.1286,-20.6969,-190.1068,0,0,0,31.53,31.1,31.79,31.79,-11.025,0.9979,528.4749,0.0,0.0,607.8088,772.6722,0,1,0,0,0,0,1,0,19,0,0.0008,0.0008,0.0013,0.0013,113
1,1084281,8499.9951,799.9995,800.0174,0.0,-0.0,-0.0,0.0,0.0002,0.0,-0.0002,-0.0,0.0002,-0.9551,0.0155,0.0109,0.4031,0.4002,0.3982,0.3958,-0.0,0.0,0.0,-0.0,0.0002,0.0003,0.0002,0.0003,0,0,0,0,0.0,0.0,0.0,0.0,0.0,0.0,0.0,0.0,-0.0001,-0.0001,-0.0002,-0.0002,0.0001,0.0001,0.0002,0.0002,0.0012,0.001,0.0018,0.0017,3620,4,700,1,6,-337.1286,-20.6969,-190.1068,0,0,0,31.53,31.1,31.79,31.79,-11.025,0.9979,528.4749,0.0,0.0,607.8254,772.6889,0,1,0,0,0,0,1,0,19,0,0.0008,0.0008,0.0013,0.0013,113
1,1084296,8499.9951,799.9995,800.0174,0.0,-0.0,-0.0,0.0,0.0002,0.0,-0.0002,-0.0,0.0002,-0.9551,0.0155,0.0109,0.4031,0.4002,0.3982,0.3958,-0.0,0.0,0.0,-0.0,0.0002,0.0003,0.0002,0.0003,0,0,0,0,0.0,0.0,0.0,0.0,0.0,0.0,0.0,0.0,-0.0001,-0.0001,-0.0002,-0.0002,0.0001,0.0001,0.0002,0.0002,0.0012,0.001,0.0018,0.0017,3620,4,700,1,6,-337.1286,-20.6969,-190.1068,0,0,0,31.53,31.1,31.79,31.79,-11.025,0.9979,528.4749,0.0,0.0,607.8421,772.7056,0,1,0,0,0,0,1,0,19,0,0.0008,0.0008,0.0013,0.0013,113
1,1084312,8499.9951,799.9995,800.0174,0.0,-0.0,-0.0,0.0,0.0002,0.0,-0.0002,-0.0,0.0002,-0.9551,0.0155,0.0109,0.4031,0.4002,0.3982,0.3958,-0.0,0.0,0.0,-0.0,0.0002,0.0003,0.0002,0.0003,0,0,0,0,0.0,0.0,0.0,0.0,0.0,0.0,0.0,0.0,-0.0001,-0.0001,-0.0002,-0.0002,0.0001,0.0001,0.0002,0.0002,0.0012,0.001,0.0018,0.0017,3620,4,700,1,6,-337.1286,-20.6969,-190.1068,0,0,0,31.53,31.1,31.78,31.78,-11.025,0.9979,528.4749,0.0,0.0,607.8588,772.7223,0,1,0,0,0,0,1,0,19,0,0.0008,0.0008,0.0013,0.0013,113
1,1084328,8499.9951,799.9995,800.0174,0.0,-0.0,-0.0,0.0,0.0002,0.0,-0.0002,-0.0,0.0002,-0.9551,0.0155,0.0109,0.4031,0.4002,0.3982,0.3958,-0.0,0.0,0.0,-0.0,0.0002,0.0003,0.0002,0.0003,0,0,0,0,0.0,0.0,0.0,0.0,0.0,0.0,0.0,0.0,-0.0001,-0.0001,-0.0002,-0.0002,0.0001,0.0001,0.0002,0.0002,0.0012,0.001,0.0018,0.0017,3620,4,700,1,6,-337.1286,-20.6969,-190.1068,0,0,0,31.52,31.1,31.78,31.78,-11.025,0.9979,528.4749,0.0,0.0,607.8754,772.739,0,1,0,0,0,0,1,0,19,0,0.0008,0.0008,0.0013,0.0013,113
1,1084343,8499.9951,799.9995,800.0174,0.0,-0.0,-0.0,0.0,0.0002,0.0,-0.0002,-0.0,0.0002,-0.9551,0.0155,0.0109,0.4031,0.4002,0.3982,0.3958,-0.0,0.0,0.0,-0.0,0.0002,0.0003,0.0002,0.0003,0,0,0,0,0.0,0.0,0.0,0.0,0.0,0.0,0.0,0.0,-0.0001,-0.0001,-0.0002,-0.0002,0.0001,0.0001,0.0002,0.0002,0.0012,0.001,0.0018,0.0017,3620,4,700,1,6,-337.1286,-20.6969,-190.1068,0,0,0,31.52,31.09,31.78,31.78,-11.025,0.9979,528.4749,0.0,0.0,607.8921,772.7556,0,1,0,0,0,0,1,0,19,0,0.0008,0.0008,0.0013,0.0013,113
1,1084359,8499.9951,799.9995,800.0174,0.0,-0.0,-0.0,0.0,0.0002,0.0,-0.0002,-0.0,0.0002,-0.9551,0.0155,0.0109,0.4031,0.4002,0.3982,0.3958,-0.0,0.0,0.0,-0.0,0.0002,0.0003,0.0002,0.0003,0,0,0,0,0.0,0.0,0.0,0.0,0.0,0.0,0.0,0.0,-0.0001,-0.0001,-0.0002,-0.0002,0.0001,0.0001,0.0002,0.0002,0.0012,0.001,0.0018,0.0017,3620,4,700,1,6,-337.1286,-20.6969,-190.1068,0,0,0,31.52,31.09,31.78,31.78,-11.025,0.9979,528.4749,0.0,0.0,607.9088,772.7723,0,1,0,0,0,0,1,0,19,0,0.0008,0.0008,0.0013,0.0013,113
1,1084375,8499.9951,799.9995,800.0174,0.0,-0.0,-0.0,0.0,0.0002,0.0,-0.0002,-0.0,0.0002,-0.9551,0.0155,0.0109,0.4031,0.4002,0.3982,0.3958,-0.0,0.0,0.0,-0.0,0.0002,0.0003,0.0002,0.0003,0,0,0,0,0.0,0.0,0.0,0.0,0.0,0.0,0.0,0.0,-0.0001,-0.0001,-0.0002,-0.0002,0.0001,0.0001,0.0002,0.0002,0.0012,0.001,0.0018,0.0017,3620,4,700,1,6,-337.1286,-20.6969,-190.1068,0,0,0,31.52,31.09,31.78,31.78,-11.025,0.9979,528.4749,0.0,0.0,607.9254,772.7889,0,1,0,0,0,0,1,0,19,0,0.0008,0.0008,0.0013,0.0013,113
1,1084390,8499.9951,799.9995,800.0174,0.0,-0.0,-0.0,0.0,0.0002,0.0,-0.0002,-0.0,0.0002,-0.9551,0.0155,0.0109,0.4031,0.4002,0.3982,0.3958,-0.0,0.0,0.0,-0.0,0.0002,0.0003,0.0002,0.0003,0,0,0,0,0.0,0.0,0.0,0.0,0.0,0.0,0.0,0.0,-0.0001,-0.0001,-0.0002,-0.0002,0.0001,0.0001,0.0002,0.0002,0.0012,0.001,0.0018,0.0017,3620,4,700,1,6,-337.1286,-20.6969,-190.1068,0,0,0,31.52,31.09,31.78,31.78,-11.025,0.9979,528.4749,0.0,0.0,607.9421,772.8056,0,1,0,0,0,0,1,0,19,0,0.0008,0.0008,0.0013,0.0013,113
1,1084406,8499.9951,799.9995,800.0174,0.0,-0.0,-0.0,0.0,0.0002,0.0,-0.0002,-0.0,0.0002,-0.9551,0.0155,0.0109,0.4031,0.4002,0.3982,0.3958,-0.0,0.0,0.0,-0.0,0.0002,0.0003,0.0002,0.0003,0,0,0,0,0.0,0.0,0.0,0.0,0.0,0.0,0.0,0.0,-0.0001,-0.0001,-0.0002,-0.0002,0.0001,0.0001,0.0002,0.0002,0.0012,0.001,0.0018,0.0017,3620,4,700,1,6,-337.1286,-20.6969,-190.1068,0,0,0,31.52,31.09,31.77,31.77,-11.025,0.9979,528.4749,0.0,0.0,607.9587,772.8223,0,1,0,0,0,0,1,0,19,0,0.0008,0.0008,0.0013,0.0013,113
1,1084421,8499.9951,799.9995,800.0174,0.0,-0.0,-0.0,0.0,0.0002,0.0,-0.0002,-0.0,0.0002,-0.9551,0.0155,0.0109,0.4031,0.4002,0.3982,0.3958,-0.0,0.0,0.0,-0.0,0.0002,0.0003,0.0002,0.0003,0,0,0,0,0.0,0.0,0.0,0.0,0.0,0.0,0.0,0.0,-0.0001,-0.0001,-0.0002,-0.0002,0.0001,0.0001,0.0002,0.0002,0.0012,0.001,0.0018,0.0017,3620,4,700,1,6,-337.1286,-20.6969,-190.1068,0,0,0,31.51,31.09,31.77,31.77,-11.025,0.9979,528.4749,0.0,0.0,607.9755,772.8389,0,1,0,0,0,0,1,0,19,0,0.0008,0.0008,0.0013,0.0013,113
1,1084437,8499.9951,799.9995,800.0174,0.0,-0.0,-0.0,0.0,0.0002,0.0,-0.0002,-0.0,0.0002,-0.9551,0.0155,0.0109,0.4031,0.4002,0.3982,0.3958,-0.0,0.0,0.0,-0.0,0.0002,0.0003,0.0002,0.0003,0,0,0,0,0.0,0.0,0.0,0.0,0.0,0.0,0.0,0.0,-0.0001,-0.0001,-0.0002,-0.0002,0.0001,0.0001,0.0002,0.0002,0.0012,0.001,0.0018,0.0017,3620,4,700,1,6,-337.1286,-20.6969,-190.1068,0,0,0,31.51,31.08,31.77,31.77,-11.025,0.9979,528.4749,0.0,0.0,607.9921,772.8556,0,1,0,0,0,0,1,0,19,0,0.0008,0.0008,0.0013,0.0013,113
1,1084453,8499.9951,799.9995,800.0174,0.0,-0.0,-0.0,0.0,0.0002,0.0,-0.0002,-0.0,0.0002,-0.9551,0.0155,0.0109,0.4031,0.4002,0.3982,0.3958,-0.0,0.0,0.0,-0.0,0.0002,0.0003,0.0002,0.0003,0,0,0,0,0.0,0.0,0.0,0.0,0.0,0.0,0.0,0.0,-0.0001,-0.0001,-0.0002,-0.0002,0.0001,0.0001,0.0002,0.0002,0.0012,0.001,0.0018,0.0017,3620,4,700,1,6,-337.1286,-20.6969,-190.1068,0,0,0,31.51,31.08,31.77,31.77,-11.025,0.9979,528.4749,0.0,0.0,608.0088,772.8723,0,1,0,0,0,0,1,0,19,0,0.0008,0.0008,0.0013,0.0013,113
1,1084484,8499.9951,799.9995,800.0174,0.0,-0.0,-0.0,0.0,0.0002,0.0,-0.0002,-0.0,0.0002,-0.9551,0.0155,0.0109,0.4031,0.4002,0.3982,0.3958,-0.0,0.0,0.0,-0.0,0.0002,0.0003,0.0002,0.0003,0,0,0,0,0.0,0.0,0.0,0.0,0.0,0.0,0.0,0.0,-0.0001,-0.0001,-0.0002,-0.0002,0.0001,0.0001,0.0002,0.0002,0.0012,0.001,0.0018,0.0017,3620,4,700,1,6,-337.1286,-20.6969,-190.1068,0,0,0,31.51,31.08,31.77,31.77,-11.025,0.9979,528.4749,0.0,0.0,608.0255,772.8889,0,1,0,0,0,0,1,0,19,0,0.0008,0.0008,0.0013,0.0013,113
1,1084500,8499.9951,799.9995,800.0174,0.0,-0.0,-0.0,0.0,0.0002,0.0,-0.0002,-0.0,0.0002,-0.9551,0.0155,0.0109,0.4031,0.4002,0.3982,0.3958,-0.0,0.0,0.0,-0.0,0.0002,0.0003,0.0002,0.0003,0,0,0,0,0.0,0.0,0.0,0.0,0.0,0.0,0.0,0.0,-0.0001,-0.0001,-0.0002,-0.0002,0.0001,0.0001,0.0002,0.0002,0.0012,0.001,0.0018,0.0017,3620,4,700,1,6,-337.1286,-20.6969,-190.1068,0,0,0,31.51,31.08,31.77,31.77,-11.025,0.9979,528.4749,0.0,0.0,608.0421,772.9056,0,1,0,0,0,0,1,0,19,0,0.0008,0.0008,0.0013,0.0013,113
1,1084515,8499.9951,799.9995,800.0174,0.0,-0.0,-0.0,0.0,0.0002,0.0,-0.0002,-0.0,0.0002,-0.9551,0.0155,0.0109,0.4031,0.4002,0.3982,0.3958,-0.0,0.0,0.0,-0.0,0.0002,0.0003,0.0002,0.0003,0,0,0,0,0.0,0.0,0.0,0.0,0.0,0.0,0.0,0.0,-0.0001,-0.0001,-0.0002,-0.0002,0.0001,0.0001,0.0002,0.0002,0.0012,0.001,0.0018,0.0017,3620,4,700,1,6,-337.1286,-20.6969,-190.1068,0,0,0,31.51,31.08,31.77,31.77,-11.025,0.9979,528.4749,0.0,0.0,608.0588,772.9222,0,1,0,0,0,0,1,0,19,0,0.0008,0.0008,0.0013,0.0013,113
1,1084531,8499.9951,799.9995,800.0174,0.0,-0.0,-0.0,0.0,0.0002,0.0,-0.0002,-0.0,0.0002,-0.9551,0.0155,0.0109,0.4031,0.4002,0.3982,0.3958,-0.0,0.0,0.0,-0.0,0.0002,0.0003,0.0002,0.0003,0,0,0,0,0.0,0.0,0.0,0.0,0.0,0.0,0.0,0.0,-0.0001,-0.0001,-0.0002,-0.0002,0.0001,0.0001,0.0002,0.0002,0.0012,0.001,0.0018,0.0017,3620,4,700,1,6,-337.1286,-20.6969,-190.1068,0,0,0,31.51,31.08,31.76,31.76,-11.025,0.9979,528.4749,0.0,0.0,608.0754,772.9389,0,1,0,0,0,0,1,0,19,0,0.0008,0.0008,0.0013,0.0013,113
1,1084546,8499.9951,799.9995,800.0174,0.0,-0.0,-0.0,0.0,0.0002,0.0,-0.0002,-0.0,0.0002,-0.9551,0.0155,0.0109,0.4031,0.4002,0.3982,0.3958,-0.0,0.0,0.0,-0.0,0.0002,0.0003,0.0002,0.0003,0,0,0,0,0.0,0.0,0.0,0.0,0.0,0.0,0.0,0.0,-0.0001,-0.0001,-0.0002,-0.0002,0.0001,0.0001,0.0002,0.0002,0.0012,0.001,0.0018,0.0017,3620,4,700,1,6,-337.1286,-20.6969,-190.1068,0,0,0,31.5,31.08,31.76,31.76,-11.025,0.9979,528.4749,0.0,0.0,608.0921,772.9556,0,1,0,0,0,0,1,0,19,0,0.0008,0.0008,0.0013,0.0013,113
1,1084562,8499.9951,799.9995,800.0174,0.0,-0.0,-0.0,0.0,0.0002,0.0,-0.0002,-0.0,0.0002,-0.9551,0.0155,0.0109,0.4031,0.4002,0.3982,0.3958,-0.0,0.0,0.0,-0.0,0.0002,0.0003,0.0002,0.0003,0,0,0,0,0.0,0.0,0.0,0.0,0.0,0.0,0.0,0.0,-0.0001,-0.0001,-0.0002,-0.0002,0.0001,0.0001,0.0002,0.0002,0.0012,0.001,0.0018,0.0017,3620,4,700,1,6,-337.1286,-20.6969,-190.1068,0,0,0,31.5,31.07,31.76,31.76,-11.025,0.9979,528.4749,0.0,0.0,608.1088,772.9723,0,1,0,0,0,0,1,0,19,0,0.0008,0.0008,0.0013,0.0013,113
1,1084578,8499.9951,799.9995,800.0174,0.0,-0.0,-0.0,0.0,0.0002,0.0,-0.0002,-0.0,0.0002,-0.9551,0.0155,0.0109,0.4031,0.4002,0.3982,0.3958,-0.0,0.0,0.0,-0.0,0.0002,0.0003,0.0002,0.0003,0,0,0,0,0.0,0.0,0.0,0.0,0.0,0.0,0.0,0.0,-0.0001,-0.0001,-0.0002,-0.0002,0.0001,0.0001,0.0002,0.0002,0.0012,0.001,0.0018,0.0017,3620,4,700,1,6,-337.1286,-20.6969,-190.1068,0,0,0,31.5,31.07,31.76,31.76,-11.025,0.9979,528.4749,0.0,0.0,608.1254,772.989,0,1,0,0,0,0,1,0,19,0,0.0008,0.0008,0.0013,0.0013,113
1,1084593,8499.9951,799.9995,800.0174,0.0,-0.0,-0.0,0.0,0.0002,0.0,-0.0002,-0.0,0.0002,-0.9551,0.0155,0.0109,0.4031,0.4002,0.3982,0.3958,-0.0,0.0,0.0,-0.0,0.0002,0.0003,0.0002,0.0003,0,0,0,0,0.0,0.0,0.0,0.0,0.0,0.0,0.0,0.0,-0.0001,-0.0001,-0.0002,-0.0002,0.0001,0.0001,0.0002,0.0002,0.0012,0.001,0.0018,0.0017,3620,4,700,1,6,-337.1286,-20.6969,-190.1068,0,0,0,31.5,31.07,31.76,31.76,-11.025,0.9979,528.4749,0.0,0.0,608.1421,773.0056,0,1,0,0,0,0,1,0,19,0,0.0008,0.0008,0.0013,0.0013,113
1,1084609,8499.9951,799.9995,800.0174,0.0,-0.0,-0.0,0.0,0.0002,0.0,-0.0002,-0.0,0.0002,-0.9551,0.0155,0.0109,0.4031,0.4002,0.3982,0.3958,-0.0,0.0,0.0,-0.0,0.0002,0.0003,0.0002,0.0003,0,0,0,0,0.0,0.0,0.0,0.0,0.0,0.0,0.0,0.0,-0.0001,-0.0001,-0.0002,-0.0002,0.0001,0.0001,0.0002,0.0002,0.0012,0.001,0.0018,0.0017,3620,4,700,1,6,-337.1286,-20.6969,-190.1068,0,0,0,31.5,31.07,31.76,31.76,-11.025,0.9979,528.4749,0.0,0.0,608.1588,773.0223,0,1,0,0,0,0,1,0,19,0,0.0008,0.0008,0.0013,0.0013,113
1,1084625,8499.9951,799.9995,800.0174,0.0,-0.0,-0.0,0.0,0.0002,0.0,-0.0002,-0.0,0.0002,-0.9551,0.0155,0.0109,0.4031,0.4002,0.3982,0.3958,-0.0,0.0,0.0,-0.0,0.0002,0.0003,0.0002,0.0003,0,0,0,0,0.0,0.0,0.0,0.0,0.0,0.0,0.0,0.0,-0.0001,-0.0001,-0.0002,-0.0002,0.0001,0.0001,0.0002,0.0002,0.0012,0.001,0.0018,0.0017,3620,4,700,1,6,-337.1286,-20.6969,-190.1068,0,0,0,31.5,31.07,31.75,31.75,-11.025,0.9979,528.4749,0.0,0.0,608.1754,773.0389,0,1,0,0,0,0,1,0,19,0,0.0008,0.0008,0.0013,0.0013,113
1,1084640,8499.9951,799.9995,800.0174,0.0,-0.0,-0.0,0.0,0.0002,0.0,-0.0002,-0.0,0.0002,-0.9551,0.0155,0.0109,0.4031,0.4002,0.3982,0.3958,-0.0,0.0,0.0,-0.0,0.0002,0.0003,0.0002,0.0003,0,0,0,0,0.0,0.0,0.0,0.0,0.0,0.0,0.0,0.0,-0.0001,-0.0001,-0.0002,-0.0002,0.0001,0.0001,0.0002,0.0002,0.0012,0.001,0.0018,0.0017,3620,4,700,1,6,-337.1286,-20.6969,-190.1068,0,0,0,31.49,31.07,31.75,31.75,-11.025,0.9979,528.4749,0.0,0.0,608.1921,773.0556,0,1,0,0,0,0,1,0,19,0,0.0008,0.0008,0.0013,0.0013,113
1,1084656,8499.9951,799.9995,800.0174,0.0,-0.0,-0.0,0.0,0.0002,0.0,-0.0002,-0.0,0.0002,-0.9551,0.0155,0.0109,0.4031,0.4002,0.3982,0.3958,-0.0,0.0,0.0,-0.0,0.0002,0.0003,0.0002,0.0003,0,0,0,0,0.0,0.0,0.0,0.0,0.0,0.0,0.0,0.0,-0.0001,-0.0001,-0.0002,-0.0002,0.0001,0.0001,0.0002,0.0002,0.0012,0.001,0.0018,0.0017,3620,4,700,1,6,-337.1286,-20.6969,-190.1068,0,0,0,31.49,31.07,31.75,31.75,-11.025,0.9979,528.4749,0.0,0.0,608.2087,773.0723,0,1,0,0,0,0,1,0,19,0,0.0008,0.0008,0.0013,0.0013,113
1,1084671,8499.9951,799.9995,800.0174,0.0,-0.0,-0.0,0.0,0.0002,0.0,-0.0002,-0.0,0.0002,-0.9551,0.0155,0.0109,0.4031,0.4002,0.3982,0.3958,-0.0,0.0,0.0,-0.0,0.0002,0.0003,0.0002,0.0003,0,0,0,0,0.0,0.0,0.0,0.0,0.0,0.0,0.0,0.0,-0.0001,-0.0001,-0.0002,-0.0002,0.0001,0.0001,0.0002,0.0002,0.0012,0.001,0.0018,0.0017,3620,4,700,1,6,-337.1286,-20.6969,-190.1068,0,0,0,31.49,31.06,31.75,31.75,-11.025,0.9979,528.4749,0.0,0.0,608.2255,773.0889,0,1,0,0,0,0,1,0,19,0,0.0008,0.0008,0.0013,0.0013,113
1,1084687,8499.9951,799.9995,800.0174,0.0,-0.0,-0.0,0.0,0.0002,0.0,-0.0002,-0.0,0.0002,-0.9551,0.0155,0.0109,0.4031,0.4002,0.3982,0.3958,-0.0,0.0,0.0,-0.0,0.0002,0.0003,0.0002,0.0003,0,0,0,0,0.0,0.0,0.0,0.0,0.0,0.0,0.0,0.0,-0.0001,-0.0001,-0.0002,-0.0002,0.0001,0.0001,0.0002,0.0002,0.0012,0.001,0.0018,0.0017,3620,4,700,1,6,-337.1286,-20.6969,-190.1068,0,0,0,31.49,31.06,31.75,31.75,-11.025,0.9979,528.4749,0.0,0.0,608.2421,773.1056,0,1,0,0,0,0,1,0,19,0,0.0008,0.0008,0.0013,0.0013,113
1,1084703,8499.9951,799.9995,800.0174,0.0,-0.0,-0.0,0.0,0.0002,0.0,-0.0002,-0.0,0.0002,-0.9551,0.0155,0.0109,0.4031,0.4002,0.3982,0.3958,-0.0,0.0,0.0,-0.0,0.0002,0.0003,0.0002,0.0003,0,0,0,0,0.0,0.0,0.0,0.0,0.0,0.0,0.0,0.0,-0.0001,-0.0001,-0.0002,-0.0002,0.0001,0.0001,0.0002,0.0002,0.0012,0.001,0.0018,0.0017,3620,4,700,1,6,-337.1286,-20.6969,-190.1068,0,0,0,31.49,31.06,31.75,31.75,-11.025,0.9979,528.4749,0.0,0.0,608.2588,773.1223,0,1,0,0,0,0,1,0,19,0,0.0008,0.0008,0.0013,0.0013,113
1,1084734,8499.9951,799.9995,800.0174,0.0,-0.0,-0.0,0.0,0.0002,0.0,-0.0002,-0.0,0.0002,-0.9551,0.0155,0.0109,0.4031,0.4002,0.3982,0.3958,-0.0,0.0,0.0,-0.0,0.0002,0.0003,0.0002,0.0003,0,0,0,0,0.0,0.0,0.0,0.0,0.0,0.0,0.0,0.0,-0.0001,-0.0001,-0.0002,-0.0002,0.0001,0.0001,0.0002,0.0002,0.0012,0.001,0.0018,0.0017,3620,4,700,1,6,-337.1286,-20.6969,-190.1068,0,0,0,31.49,31.06,31.74,31.74,-11.025,0.9979,528.4749,0.0,0.0,608.2755,773.1389,0,1,0,0,0,0,1,0,19,0,0.0008,0.0008,0.0013,0.0013,113
1,1084750,8499.9951,799.9995,800.0174,0.0,-0.0,-0.0,0.0,0.0002,0.0,-0.0002,-0.0,0.0002,-0.9551,0.0155,0.0109,0.4031,0.4002,0.3982,0.3958,-0.0,0.0,0.0,-0.0,0.0002,0.0003,0.0002,0.0003,0,0,0,0,0.0,0.0,0.0,0.0,0.0,0.0,0.0,0.0,-0.0001,-0.0001,-0.0002,-0.0002,0.0001,0.0001,0.0002,0.0002,0.0012,0.001,0.0018,0.0017,3620,4,700,1,6,-337.1286,-20.6969,-190.1068,0,0,0,31.49,31.06,31.74,31.74,-11.025,0.9979,528.4749,0.0,0.0,608.2921,773.1556,0,1,0,0,0,0,1,0,19,0,0.0008,0.0008,0.0013,0.0013,113
1,1084765,8499.9951,799.9995,800.0174,0.0,-0.0,-0.0,0.0,0.0002,0.0,-0.0002,-0.0,0.0002,-0.9551,0.0155,0.0109,0.4031,0.4002,0.3982,0.3958,-0.0,0.0,0.0,-0.0,0.0002,0.0003,0.0002,0.0003,0,0,0,0,0.0,0.0,0.0,0.0,0.0,0.0,0.0,0.0,-0.0001,-0.0001,-0.0002,-0.0002,0.0001,0.0001,0.0002,0.0002,0.0012,0.001,0.0018,0.0017,3620,4,700,1,6,-337.1286,-20.6969,-190.1068,0,0,0,31.48,31.06,31.74,31.74,-11.025,0.9979,528.4749,0.0,0.0,608.3088,773.1722,0,1,0,0,0,0,1,0,19,0,0.0008,0.0008,0.0013,0.0013,113
1,1084781,8499.9951,799.9995,800.0174,0.0,-0.0,-0.0,0.0,0.0002,0.0,-0.0002,-0.0,0.0002,-0.9551,0.0155,0.0109,0.4031,0.4002,0.3982,0.3958,-0.0,0.0,0.0,-0.0,0.0002,0.0003,0.0002,0.0003,0,0,0,0,0.0,0.0,0.0,0.0,0.0,0.0,0.0,0.0,-0.0001,-0.0001,-0.0002,-0.0002,0.0001,0.0001,0.0002,0.0002,0.0012,0.001,0.0018,0.0017,3620,4,700,1,6,-337.1286,-20.6969,-190.1068,0,0,0,31.48,31.06,31.74,31.74,-11.025,0.9979,528.4749,0.0,0.0,608.3254,773.1889,0,1,0,0,0,0,1,0,19,0,0.0008,0.0008,0.0013,0.0013,113
1,1084796,8499.9951,799.9995,800.0174,0.0,-0.0,-0.0,0.0,0.0002,0.0,-0.0002,-0.0,0.0002,-0.9551,0.0155,0.0109,0.4031,0.4002,0.3982,0.3958,-0.0,0.0,0.0,-0.0,0.0002,0.0003,0.0002,0.0003,0,0,0,0,0.0,0.0,0.0,0.0,0.0,0.0,0.0,0.0,-0.0001,-0.0001,-0.0002,-0.0002,0.0001,0.0001,0.0002,0.0002,0.0012,0.001,0.0018,0.0017,3620,4,700,1,6,-337.1286,-20.6969,-190.1068,0,0,0,31.48,31.05,31.74,31.74,-11.025,0.9979,528.4749,0.0,0.0,608.3421,773.2056,0,1,0,0,0,0,1,0,19,0,0.0008,0.0008,0.0013,0.0013,113
1,1084812,8499.9951,799.9995,800.0174,0.0,-0.0,-0.0,0.0,0.0002,0.0,-0.0002,-0.0,0.0002,-0.9551,0.0155,0.0109,0.4031,0.4002,0.3982,0.3958,-0.0,0.0,0.0,-0.0,0.0002,0.0003,0.0002,0.0003,0,0,0,0,0.0,0.0,0.0,0.0,0.0,0.0,0.0,0.0,-0.0001,-0.0001,-0.0002,-0.0002,0.0001,0.0001,0.0002,0.0002,0.0012,0.001,0.0018,0.0017,3620,4,700,1,6,-337.1286,-20.6969,-190.1068,0,0,0,31.48,31.05,31.74,31.74,-11.025,0.9979,528.4749,0.0,0.0,608.3588,773.2223,0,1,0,0,0,0,1,0,19,0,0.0008,0.0008,0.0013,0.0013,113
1,1084828,8499.9951,799.9995,800.0174,0.0,-0.0,-0.0,0.0,0.0002,0.0,-0.0002,-0.0,0.0002,-0.9551,0.0155,0.0109,0.4031,0.4002,0.3982,0.3958,-0.0,0.0,0.0,-0.0,0.0002,0.0003,0.0002,0.0003,0,0,0,0,0.0,0.0,0.0,0.0,0.0,0.0,0.0,0.0,-0.0001,-0.0001,-0.0002,-0.0002,0.0001,0.0001,0.0002,0.0002,0.0012,0.001,0.0018,0.0017,3620,4,700,1,6,-337.1286,-20.6969,-190.1068,0,0,0,31.48,31.05,31.74,31.74,-11.025,0.9979,528.4749,0.0,0.0,608.3754,773.239,0,1,0,0,0,0,1,0,19,0,0.0008,0.0008,0.0013,0.0013,113
1,1084843,8499.9951,799.9995,800.0174,0.0,-0.0,-0.0,0.0,0.0002,0.0,-0.0002,-0.0,0.0002,-0.9551,0.0155,0.0109,0.4031,0.4002,0.3982,0.3958,-0.0,0.0,0.0,-0.0,0.0002,0.0003,0.0002,0.0003,0,0,0,0,0.0,0.0,0.0,0.0,0.0,0.0,0.0,0.0,-0.0001,-0.0001,-0.0002,-0.0002,0.0001,0.0001,0.0002,0.0002,0.0012,0.001,0.0018,0.0017,3620,4,700,1,6,-337.1286,-20.6969,-190.1068,0,0,0,31.48,31.05,31.73,31.73,-11.025,0.9979,528.4749,0.0,0.0,608.3921,773.2556,0,1,0,0,0,0,1,0,19,0,0.0008,0.0008,0.0013,0.0013,113
1,1084859,8499.9951,799.9995,800.0174,0.0,-0.0,-0.0,0.0,0.0002,0.0,-0.0002,-0.0,0.0002,-0.9551,0.0155,0.0109,0.4031,0.4002,0.3982,0.3958,-0.0,0.0,0.0,-0.0,0.0002,0.0003,0.0002,0.0003,0,0,0,0,0.0,0.0,0.0,0.0,0.0,0.0,0.0,0.0,-0.0001,-0.0001,-0.0002,-0.0002,0.0001,0.0001,0.0002,0.0002,0.0012,0.001,0.0018,0.0017,3620,4,700,1,6,-337.1286,-20.6969,-190.1068,0,0,0,31.48,31.05,31.73,31.73,-11.025,0.9979,528.4749,0.0,0.0,608.4088,773.2723,0,1,0,0,0,0,1,0,19,0,0.0008,0.0008,0.0013,0.0013,113
1,1084875,8499.9951,799.9995,800.0174,0.0,-0.0,-0.0,0.0,0.0002,0.0,-0.0002,-0.0,0.0002,-0.9551,0.0155,0.0109,0.4031,0.4002,0.3982,0.3958,-0.0,0.0,0.0,-0.0,0.0002,0.0003,0.0002,0.0003,0,0,0,0,0.0,0.0,0.0,0.0,0.0,0.0,0.0,0.0,-0.0001,-0.0001,-0.0002,-0.0002,0.0001,0.0001,0.0002,0.0002,0.0012,0.001,0.0018,0.0017,3620,4,700,1,6,-337.1286,-20.6969,-190.1068,0,0,0,31.47,31.05,31.73,31.73,-11.025,0.9979,528.4749,0.0,0.0,608.4254,773.2889,0,1,0,0,0,0,1,0,19,0,0.0008,0.0008,0.0013,0.0013,113
1,1084890,8499.9951,799.9995,800.0174,0.0,-0.0,-0.0,0.0,0.0002,0.0,-0.0002,-0.0,0.0002,-0.9551,0.0155,0.0109,0.4031,0.4002,0.3982,0.3958,-0.0,0.0,0.0,-0.0,0.0002,0.0003,0.0002,0.0003,0,0,0,0,0.0,0.0,0.0,0.0,0.0,0.0,0.0,0.0,-0.0001,-0.0001,-0.0002,-0.0002,0.0001,0.0001,0.0002,0.0002,0.0012,0.001,0.0018,0.0017,3620,4,700,1,6,-337.1286,-20.6969,-190.1068,0,0,0,31.47,31.05,31.73,31.73,-11.025,0.9979,528.4749,0.0,0.0,608.4421,773.3056,0,1,0,0,0,0,1,0,19,0,0.0008,0.0008,0.0013,0.0013,113
1,1084906,8499.9951,799.9995,800.0174,0.0,-0.0,-0.0,0.0,0.0002,0.0,-0.0002,-0.0,0.0002,-0.9551,0.0155,0.0109,0.4031,0.4002,0.3982,0.3958,-0.0,0.0,0.0,-0.0,0.0002,0.0003,0.0002,0.0003,0,0,0,0,0.0,0.0,0.0,0.0,0.0,0.0,0.0,0.0,-0.0001,-0.0001,-0.0002,-0.0002,0.0001,0.0001,0.0002,0.0002,0.0012,0.001,0.0018,0.0017,3620,4,700,1,6,-337.1286,-20.6969,-190.1068,0,0,0,31.47,31.04,31.73,31.73,-11.025,0.9979,528.4749,0.0,0.0,608.4587,773.3223,0,1,0,0,0,0,1,0,19,0,0.0008,0.0008,0.0013,0.0013,113
1,1084921,8499.9951,799.9995,800.0174,0.0,-0.0,-0.0,0.0,0.0002,0.0,-0.0002,-0.0,0.0002,-0.9551,0.0155,0.0109,0.4031,0.4002,0.3982,0.3958,-0.0,0.0,0.0,-0.0,0.0002,0.0003,0.0002,0.0003,0,0,0,0,0.0,0.0,0.0,0.0,0.0,0.0,0.0,0.0,-0.0001,-0.0001,-0.0002,-0.0002,0.0001,0.0001,0.0002,0.0002,0.0012,0.001,0.0018,0.0017,3620,4,700,1,6,-337.1286,-20.6969,-190.1068,0,0,0,31.47,31.04,31.73,31.73,-11.025,0.9979,528.4749,0.0,0.0,608.4755,773.3389,0,1,0,0,0,0,1,0,19,0,0.0008,0.0008,0.0013,0.0013,113
